,codigo,longitud,latitud,comuna,direccion,m21,m22,bathroom,dormitorios,precio11,precio12,precio21,precio22,uf,fecha_publicacion,url,url_img,operacion
0,1778539,-70.69153332,-33.45447499,Estación Central,"Av. Bernardo O´Higgins  4050, Estación Central",0.0,0.0,1,1,42000000.0,42000000.0,1392.07,1392.07,1392.07,18-07-2021 0:00:00,https://www.toctoc.com/propiedades/compraparticularsr/oficina/estacion-central/av-bernardo-o-higgins-4050-estacion-central/1778539,https://d1cfu8v5n1wsm.cloudfront.net/toctoc/fotos/20210718/1778539/s_wm_2021080221107548331.jpeg,venta
0,1700221,-70.6917164,-33.454416,Estación Central,"Alameda 4050, Estación Central",0.0,0.0,1,1,1500.0,1500.0,45256245.0,0.0,1500.0,23-03-2021 0:00:00,https://www.toctoc.com/propiedades/compraparticularsr/oficina/estacion-central/alameda-4050-estacion-central/1700221,https://d1cfu8v5n1wsm.cloudfront.net/toctoc/fotos/20210323/1700221/s_wm_2021032359517859342.jpg,venta
0,1770157,-70.60163565,-33.42077778,Providencia,"THAYER OJEDA 260   OF 3, Providencia",0.0,0.0,2,2,5200.0,5200.0,156888316.0,0.0,5200.0,05-07-2021 0:00:00,https://www.toctoc.com/propiedades/compraparticularsr/oficina/providencia/thayer-ojeda-260-of-3-providencia/1770157,https://d1cfu8v5n1wsm.cloudfront.net/toctoc/fotos/20210705/1770157/s_wm_2021070521566322074.jpg,venta
0,1750370,-70.64749353,-33.4427556,Santiago,"OFICINA San Antonio 19, Santiago",0.0,0.0,2,2,3950.0,3950.0,119174778.5,0.0,3950.0,03-06-2021 0:00:00,https://www.toctoc.com/propiedades/compraparticularsr/oficina/santiago/oficina-san-antonio-19-santiago/1750370,https://d1cfu8v5n1wsm.cloudfront.net/toctoc/fotos/20210603/1750370/s_wm_2021060348476528549.jpg,venta
0,1814141,-70.65157857,-33.43969942,Santiago,"Huerfanos 1044, Santiago",0.0,0.0,1,1,85000000.0,85000000.0,2817.29,2817.29,2817.29,01-09-2021 0:00:00,https://www.toctoc.com/propiedades/compraparticularsr/oficina/santiago/huerfanos-1044-santiago/1814141,https://d1cfu8v5n1wsm.cloudfront.net/toctoc/fotos/20210901/1814141/s_wm_2021090135306396395.jpg,venta
0,1775199,-70.65443843,-33.43984716,Santiago,"Dr Sotero del Rio 326, Santiago",0.0,0.0,1,1,3000.0,3000.0,90512490.0,0.0,3000.0,12-07-2021 0:00:00,https://www.toctoc.com/propiedades/compraparticularsr/oficina/santiago/dr-sotero-del-rio-326-santiago/1775199,https://d1cfu8v5n1wsm.cloudfront.net/toctoc/fotos/20210712/1775199/s_wm_2021071206134648985.jpg,venta
0,1790632,-70.65392134,-33.4396254,Santiago,"MORANDE 322   OF 702, Santiago",0.0,0.0,3,3,19000.0,19000.0,573245770.0,0.0,19000.0,03-08-2021 0:00:00,https://www.toctoc.com/propiedades/compraparticularsr/oficina/santiago/morande-322-of-702-santiago/1790632,https://d1cfu8v5n1wsm.cloudfront.net/toctoc/fotos/20210803/1790632/s_wm_2021080311459044713.jpg,venta
0,1807677,-70.6595523,-33.44312646,Santiago,"Oficinas 1/2 planta - FANOR VELASCO 85, Santiago",0.0,0.0,6,6,18000.0,18000.0,543074940.0,0.0,18000.0,26-08-2021 0:00:00,https://www.toctoc.com/propiedades/compraparticularsr/oficina/santiago/oficinas-1-2-planta-fanor-velasco-85-santiago/1807677,https://d1cfu8v5n1wsm.cloudfront.net/toctoc/fotos/20210826/1807677/s_wm_2021082618391669269.jpg,venta
0,1830294,-70.65520236,-33.4438477,Santiago,"VALENTIN LETELIER 20 DP 303, Santiago",0.0,0.0,2,2,5400.0,5400.0,162922482.0,0.0,5400.0,22-09-2021 0:00:00,https://www.toctoc.com/propiedades/compraparticularsr/oficina/santiago/valentin-letelier-20-dp-303-santiago/1830294,https://d1cfu8v5n1wsm.cloudfront.net/toctoc/fotos/20210922/1830294/s_wm_2021092225224019769.jpg,venta
0,1644483,-70.586796,-33.415809,Las Condes,"MÁLAGA 85, Las Condes",0.0,0.0,1,1,3990.0,3990.0,120381611.7,0.0,3990.0,24-06-2021 0:00:00,https://www.toctoc.com/propiedades/compraparticularsr/oficina/las-condes/malaga-85-las-condes/1644483,https://d1cfu8v5n1wsm.cloudfront.net/toctoc/fotos/20210106/1644483/s_wm_2021010549060056307.jpg,venta
0,1804758,-70.616998,-33.430656,Providencia,"ANTONIO VARAS 303 OF 1109, Providencia",0.0,0.0,1,1,3100.0,3100.0,93529573.0,0.0,3100.0,23-08-2021 0:00:00,https://www.toctoc.com/propiedades/compraparticularsr/oficina/providencia/antonio-varas-303-of-1109-providencia/1804758,https://d1cfu8v5n1wsm.cloudfront.net/toctoc/fotos/20210823/1804758/s_wm_2021082313073892978.jpg,venta
0,1562915,-70.61595497,-33.42401332,Providencia,"LA CONCEPCION 165   OF 302, Providencia",0.0,0.0,1,1,2600.0,2600.0,78444158.0,0.0,2600.0,02-06-2021 0:00:00,https://www.toctoc.com/propiedades/compraparticularsr/oficina/providencia/la-concepcion-165-of-302-providencia/1562915,https://d1cfu8v5n1wsm.cloudfront.net/toctoc/fotos/20200920/1562915/s_wm_2020092056053416962.jpg,venta
0,1791837,-70.6160546,-33.4240785,Providencia,Excelente oficina en Providencia,42.0,42.0,1,1,2600.0,2600.0,78444158.0,0.0,2600.0,04-08-2021 0:00:00,https://www.toctoc.com/propiedades/compracorredorasr/oficina/providencia/excelente-oficina-en-providencia/1791837,https://d1cfu8v5n1wsm.cloudfront.net/toctoc/fotos/20210804/1791837/s_wm_e548fad4-559f-4aa6-931e-9876a21bd99c_20210804_214919.jpg,venta
0,1838473,-70.69150254,-33.53494033,Lo Espejo,Construcción desarmable incluye galpón y oficinas ( SIN TERRENO),0.0,0.0,4,4,115000000.0,115000000.0,3811.63,3811.63,3811.63,02-10-2021 0:00:00,https://www.toctoc.com/propiedades/compraparticularsr/oficina/lo-espejo/construccion-desarmable-incluye-galpon-y-oficinas-sin-terreno/1838473,https://d1cfu8v5n1wsm.cloudfront.net/toctoc/fotos/20211002/1838473/s_wm_2021100229085870172.jpg,venta
0,1810806,-70.57161388,-33.41005001,Las Condes,"Apoquindo 5555 1211, Las Condes",0.0,0.0,1,1,3319.0,3319.0,100136984.77,0.0,3319.0,30-08-2021 0:00:00,https://www.toctoc.com/propiedades/compraparticularsr/oficina/las-condes/apoquindo-5555-1211-las-condes/1810806,https://d1cfu8v5n1wsm.cloudfront.net/toctoc/fotos/20210830/1810806/s_wm_2021083029446213156.jpeg,venta
0,1775983,-70.59234731,-33.41713739,Las Condes,"NAPOLEON 3565   OF 412, Las Condes",0.0,0.0,2,2,5400.0,5400.0,162922482.0,0.0,5400.0,13-07-2021 0:00:00,https://www.toctoc.com/propiedades/compraparticularsr/oficina/las-condes/napoleon-3565-of-412-las-condes/1775983,https://d1cfu8v5n1wsm.cloudfront.net/toctoc/fotos/20210713/1775983/s_wm_2021071317198356517.jpg,venta
0,1798230,-70.60033462,-33.41979039,Providencia,"JOSE A SOFFIA 2747   OF 601, Providencia",0.0,0.0,2,2,8615.0,8615.0,259921700.45,0.0,8615.0,14-08-2021 0:00:00,https://www.toctoc.com/propiedades/compraparticularsr/oficina/providencia/jose-a-soffia-2747-of-601-providencia/1798230,https://d1cfu8v5n1wsm.cloudfront.net/toctoc/fotos/20210814/1798230/s_wm_2021081407062870842.jpg,venta
0,1792419,-72.591224,-38.739964,Temuco,"PRAT ESQ VARAS OF  327, Temuco",0.0,0.0,2,2,2150.0,2150.0,64867284.5,0.0,2150.0,05-08-2021 0:00:00,https://www.toctoc.com/propiedades/compraparticularsr/oficina/temuco/prat-esq-varas-of-327-temuco/1792419,https://d1cfu8v5n1wsm.cloudfront.net/toctoc/fotos/20210805/1792419/s_wm_2021080529282115645.jpg,venta
0,1719689,-72.588507,-38.740535,Temuco,"ANTONIO VARAS 989 OF. 505, Temuco",0.0,0.0,1,1,2800.0,2800.0,84478324.0,0.0,2800.0,20-04-2021 0:00:00,https://www.toctoc.com/propiedades/compraparticularsr/oficina/temuco/antonio-varas-989-of-505-temuco/1719689,https://d1cfu8v5n1wsm.cloudfront.net/toctoc/fotos/20210420/1719689/s_wm_2021042020254097234.jpeg,venta
0,1825797,-70.909861,-53.15830691,Punta Arenas,"Avenida Colón 466, Punta Arenas",0.0,0.0,3,3,400000000.0,400000000.0,13257.84,13257.84,13257.84,14-09-2021 0:00:00,https://www.toctoc.com/propiedades/compraparticularsr/oficina/punta-arenas/avenida-colon-466-punta-arenas/1825797,https://d1cfu8v5n1wsm.cloudfront.net/toctoc/fotos/20210914/1825797/s_wm_2021091420014657325.jpg,venta
0,1829042,-70.63311471,-33.43487808,Providencia,Hermosa oficina/local comercial en Barrio Bellavista,0.0,0.0,4,4,14000.0,14000.0,422391620.0,0.0,14000.0,21-09-2021 0:00:00,https://www.toctoc.com/propiedades/compraparticularsr/oficina/providencia/hermosa-oficina-local-comercial-en-barrio-bellavista/1829042,https://d1cfu8v5n1wsm.cloudfront.net/toctoc/fotos/20210921/1829042/s_wm_2021092143226091186.jpg,venta
0,1823191,-70.5072,-33.3624,Lo Barnechea,Av. Raúl Labbé,128.12,128.12,4,4,7990.0,7990.0,241064931.7,0.0,7990.0,10-09-2021 0:00:00,https://www.toctoc.com/propiedades/compracorredorasr/oficina/lo-barnechea/av-raul-labbe/1823191,https://d1cfu8v5n1wsm.cloudfront.net/toctoc/fotos/20210910/1823191/s_wm_century21gs_613771958fbd6.jpg,venta
0,1531634,-70.5175,-33.3578,Lo Barnechea,Mall Portal La Dehesa,36.72,36.72,1,1,3395.0,3395.0,102429967.85,0.0,3395.0,22-07-2021 0:00:00,https://www.toctoc.com/propiedades/compracorredorasr/oficina/lo-barnechea/mall-portal-la-dehesa/1531634,https://d1cfu8v5n1wsm.cloudfront.net/toctoc/fotos/20200806/1531634/s_wm_vld_407881030407881895517_1.jpg,venta
0,1732746,-70.5186,-33.3553,Lo Barnechea,AV LA DEHESA-LOS CACTUS,125.06,125.06,3,3,13630.0,13630.0,411228412.9,0.0,13630.0,08-05-2021 0:00:00,https://www.toctoc.com/propiedades/compracorredorasr/oficina/lo-barnechea/av-la-dehesa-los-cactus/1732746,https://d1cfu8v5n1wsm.cloudfront.net/toctoc/fotos/20210508/1732746/s_wm_vld_78298-103078298-2296292_1.jpg,venta
0,1235432,-70.5152,-33.3524,Lo Barnechea,"Rodeo, La Dehesa",924.0,924.0,4,4,40000.0,40000.0,1206833200.0,0.0,40000.0,06-05-2020 0:00:00,https://www.toctoc.com/propiedades/compracorredorasr/oficina/lo-barnechea/rodeo-la-dehesa/1235432,https://d1cfu8v5n1wsm.cloudfront.net/toctoc/fotos/20190517/1235432/s_wm_vld_47316-103047316-1953336_1.jpg,venta
0,1700494,-70.6492,-33.4442,Santiago,ESTACION UNIVERSIDAD DE CHILE/SERRANO,0.0,0.0,0,0,11200.0,11200.0,337913296.0,0.0,11200.0,24-09-2021 0:00:00,https://www.toctoc.com/propiedades/compracorredorasr/oficina/santiago/estacion-universidad-de-chile-serrano/1700494,https://d1cfu8v5n1wsm.cloudfront.net/toctoc/fotos/20210324/1700494/s_wm_procasa_propiedades_88600900_1.jpg,venta
0,1700496,-70.6492,-33.4442,Santiago,ESTACION UNIVERSIDAD DE CHILE/SERRANO,0.0,0.0,6,6,19500.0,19500.0,588331185.0,0.0,19500.0,24-09-2021 0:00:00,https://www.toctoc.com/propiedades/compracorredorasr/oficina/santiago/estacion-universidad-de-chile-serrano/1700496,https://d1cfu8v5n1wsm.cloudfront.net/toctoc/fotos/20210324/1700496/s_wm_procasa_propiedades_88600900_1.jpg,venta
0,1821701,-70.6489,-33.4425,Santiago,Estado,222.0,222.0,3,3,9520.0,9520.0,287226301.6,0.0,9520.0,08-09-2021 0:00:00,https://www.toctoc.com/propiedades/compracorredorasr/oficina/santiago/estado/1821701,https://d1cfu8v5n1wsm.cloudfront.net/toctoc/fotos/20210908/1821701/s_wm_century21rd_611fd648e48ab.jpg,venta
0,1098515,-70.649,-33.4424,Santiago,Estado/Moneda,0.0,0.0,0,0,3250.0,3250.0,98055197.5,0.0,3250.0,18-09-2021 0:00:00,https://www.toctoc.com/propiedades/compracorredorasr/oficina/santiago/estado-moneda/1098515,https://d1cfu8v5n1wsm.cloudfront.net/toctoc/fotos/20181012/1098515/s_wm_procasa_propiedades_76538826_1.jpg,venta
0,1728150,-70.641,-33.4401,Santiago,José Victorino Lastarria,221.0,221.0,0,0,14000.0,14000.0,422391620.0,0.0,14000.0,06-10-2021 0:00:00,https://www.toctoc.com/propiedades/compracorredorasr/oficina/santiago/jose-victorino-lastarria/1728150,https://d1cfu8v5n1wsm.cloudfront.net/toctoc/fotos/20210501/1728150/s_wm_remax1028057_l_99d18bb3-c4a4-4df2-913f-f66400ff2c6d_ilist.jpg,venta
0,1794306,-70.6494,-33.444,Santiago,Serrano,444.0,444.0,7,7,21600.0,21600.0,651689928.0,0.0,21600.0,09-08-2021 0:00:00,https://www.toctoc.com/propiedades/compracorredorasr/oficina/santiago/serrano/1794306,https://d1cfu8v5n1wsm.cloudfront.net/toctoc/fotos/20210809/1794306/s_wm_century21pro_610fe2a2a85ef.jpg,venta
0,1432094,-70.5972,-33.4147,Las Condes,Isidora Goyenechea / Don Carlos / Metro Estacion El Golf,184.0,184.0,3,3,20500.0,20500.0,618502015.0,0.0,20500.0,06-05-2020 0:00:00,https://www.toctoc.com/propiedades/compracorredorasr/oficina/las-condes/isidora-goyenechea-don-carlos-metro-estacion-el-golf/1432094,https://d1cfu8v5n1wsm.cloudfront.net/toctoc/fotos/20200228/1432094/s_wm_cys_73721-103073721-2202693_1.jpg,venta
0,1720193,-70.5942,-33.4166,Las Condes,Enrique Foster Sur / Apoquindo / El Golf,115.0,115.0,3,3,13500.0,13500.0,407306205.0,0.0,13500.0,21-04-2021 0:00:00,https://www.toctoc.com/propiedades/compracorredorasr/oficina/las-condes/enrique-foster-sur-apoquindo-el-golf/1720193,https://d1cfu8v5n1wsm.cloudfront.net/toctoc/fotos/20210421/1720193/s_wm_amp_78185-103078185-2292674_1.jpg,venta
0,1836403,-70.5984,-33.4166,Las Condes,Carmencita,329.0,329.0,3,3,26320.0,26320.0,794096245.6,0.0,26320.0,30-09-2021 0:00:00,https://www.toctoc.com/propiedades/compracorredorasr/oficina/las-condes/carmencita/1836403,https://d1cfu8v5n1wsm.cloudfront.net/toctoc/fotos/20210930/1836403/s_wm_century21invernor_615471f020dd6.jpg,venta
0,1838441,-70.5935,-33.4159,Las Condes,Magdalena,220.0,220.0,3,3,21000.0,21000.0,633587430.0,0.0,21000.0,02-10-2021 0:00:00,https://www.toctoc.com/propiedades/compracorredorasr/oficina/las-condes/magdalena/1838441,https://d1cfu8v5n1wsm.cloudfront.net/toctoc/fotos/20211002/1838441/s_wm_fpv_378248103378248912249_1.jpg,venta
0,1805472,-70.5943,-33.4158,Las Condes,Enrique Foster Norte,452.0,452.0,6,6,38000.0,38000.0,1146491540.0,0.0,38000.0,24-08-2021 0:00:00,https://www.toctoc.com/propiedades/compracorredorasr/oficina/las-condes/enrique-foster-norte/1805472,https://d1cfu8v5n1wsm.cloudfront.net/toctoc/fotos/20210824/1805472/s_wm_century21andes_5ee20900c77ef.jpg,venta
0,1645283,-70.5915,-33.4139,Las Condes,Isidora Goyenechea,134.0,134.0,4,4,13500.0,13500.0,407306205.0,0.0,13500.0,07-01-2021 0:00:00,https://www.toctoc.com/propiedades/compracorredorasr/oficina/las-condes/isidora-goyenechea/1645283,https://d1cfu8v5n1wsm.cloudfront.net/toctoc/fotos/20210107/1645283/s_wm_golden_propiedades_11501-103011501-222005_1.jpg,venta
0,1806146,-70.899,-33.6111,Peñaflor,Plaza Peñaflor,782.0,782.0,4,4,10570.0,10570.0,318905673.1,0.0,10570.0,24-08-2021 0:00:00,https://www.toctoc.com/propiedades/compracorredorasr/oficina/penaflor/plaza-penaflor/1806146,https://d1cfu8v5n1wsm.cloudfront.net/toctoc/fotos/20210824/1806146/s_wm_fpt_377515103377515896687_1.jpg,venta
0,1093316,-70.6537,-33.4996,San Miguel,Metro lo Vial,880.0,880.0,7,7,39000.0,39000.0,1176662370.0,0.0,39000.0,30-01-2019 0:00:00,https://www.toctoc.com/propiedades/compracorredorasr/oficina/san-miguel/metro-lo-vial/1093316,https://d1cfu8v5n1wsm.cloudfront.net/toctoc/fotos/20181004/1093316/s_wm_realtycorp_38177-103038177-266760_1.jpg,venta
0,1635588,-70.5671,-33.4088,Las Condes,Encomenderos,408.97,408.97,6,6,45000.0,45000.0,1357687350.0,0.0,45000.0,18-12-2020 0:00:00,https://www.toctoc.com/propiedades/compracorredorasr/oficina/las-condes/encomenderos/1635588,https://d1cfu8v5n1wsm.cloudfront.net/toctoc/fotos/20201218/1635588/s_wm_century21invernor_5f89db6f6b132.jpg,venta
0,1736284,-70.5644,-33.4074,Las Condes,Apoquindo/Noruega,0.0,0.0,2,2,10200.0,10200.0,307742466.0,0.0,10200.0,18-09-2021 0:00:00,https://www.toctoc.com/propiedades/compracorredorasr/oficina/las-condes/apoquindo-noruega/1736284,https://d1cfu8v5n1wsm.cloudfront.net/toctoc/fotos/20210514/1736284/s_wm_procasa_propiedades_76538826_1.jpg,venta
0,1835536,-70.6099,-33.4243,Providencia,Providencia // Guardia Vieja (1051),0.0,0.0,1,1,12900.0,12900.0,389203707.0,0.0,12900.0,29-09-2021 0:00:00,https://www.toctoc.com/propiedades/compracorredorasr/oficina/providencia/providencia-guardia-vieja-1051/1835536,https://d1cfu8v5n1wsm.cloudfront.net/toctoc/fotos/20210929/1835536/s_wm_makler_whatsapp_image_20210928_at_10.40.21_1_20210928233329.jpeg,venta
0,1841313,-70.6045,-33.4209,Providencia,San Pio X,90.0,90.0,2,2,8900.0,8900.0,268520387.0,0.0,8900.0,07-10-2021 0:00:00,https://www.toctoc.com/propiedades/compracorredorasr/oficina/providencia/san-pio-x/1841313,https://d1cfu8v5n1wsm.cloudfront.net/toctoc/fotos/20211007/1841313/s_wm_century21hr_615e1302a3286.jpg,venta
0,1795662,-70.6076,-33.4211,Providencia,Suecia/ Av. Providencia (961),0.0,0.0,2,2,6800.0,6800.0,205161644.0,0.0,6800.0,11-08-2021 0:00:00,https://www.toctoc.com/propiedades/compracorredorasr/oficina/providencia/suecia-av-providencia-961/1795662,https://d1cfu8v5n1wsm.cloudfront.net/toctoc/fotos/20210811/1795662/s_wm_makler_01_sala_espera_20210804152701.jpg,venta
0,1785800,-70.6078,-33.4242,Providencia,Lota / Ricardo Lyon / Suecia,55.0,55.0,2,2,5090.0,5090.0,153569524.7,0.0,5090.0,28-07-2021 0:00:00,https://www.toctoc.com/propiedades/compracorredorasr/oficina/providencia/lota-ricardo-lyon-suecia/1785800,https://d1cfu8v5n1wsm.cloudfront.net/toctoc/fotos/20210728/1785800/s_wm_realtycorp_45720103045720335911_1.jpg,venta
0,1516920,-70.6095,-33.4207,Providencia,Santa Magdalena/Andrés Bello,132.0,132.0,3,3,11400.0,11400.0,343947462.0,0.0,11400.0,18-09-2021 0:00:00,https://www.toctoc.com/propiedades/compracorredorasr/oficina/providencia/santa-magdalena-andres-bello/1516920,https://d1cfu8v5n1wsm.cloudfront.net/toctoc/fotos/20200715/1516920/s_wm_procasa_propiedades_76538826_1.jpg,venta
0,1839997,-70.6075,-33.4228,Providencia,Las Bellotas,116.0,116.0,0,0,5990.0,5990.0,180723271.7,0.0,5990.0,06-10-2021 0:00:00,https://www.toctoc.com/propiedades/compracorredorasr/oficina/providencia/las-bellotas/1839997,https://d1cfu8v5n1wsm.cloudfront.net/toctoc/fotos/20211006/1839997/s_wm_remax1028046_l_79c17785-54f4-445c-8857-13af9d6186ce_ilist.jpg,venta
0,1669110,-70.64043063,-33.43933286,Santiago,Barrio Lastarria,186.0,186.0,3,3,17300.0,17300.0,521955359.0,0.0,17300.0,09-02-2021 0:00:00,https://www.toctoc.com/propiedades/compracorredorasr/oficina/santiago/barrio-lastarria/1669110,https://d1cfu8v5n1wsm.cloudfront.net/toctoc/fotos/20210209/1669110/s_wm_grupopremium_26742-103026742-2019628_1.jpg,venta
0,1565128,-70.6485,-33.438,Santiago,San Antonio/Merced,109.0,109.0,3,3,160000000.0,160000000.0,5303.14,5303.14,5303.14,18-09-2021 0:00:00,https://www.toctoc.com/propiedades/compracorredorasr/oficina/santiago/san-antonio-merced/1565128,https://d1cfu8v5n1wsm.cloudfront.net/toctoc/fotos/20200923/1565128/s_wm_procasa_propiedades_76538826_1.jpg,venta
0,1745004,-70.6439,-33.4385,Santiago,Metro Santa Lucia //  Metro Bellas Artes/Huérfanos // Merced,325.0,325.0,10,10,33890.0,33890.0,1022489428.7,0.0,33890.0,10-09-2021 0:00:00,https://www.toctoc.com/propiedades/compracorredorasr/oficina/santiago/metro-santa-lucia-metro-bellas-artes-huerfanos-merced/1745004,https://d1cfu8v5n1wsm.cloudfront.net/toctoc/fotos/20210527/1745004/s_wm_procasa_propiedades_76265833_1.jpg,venta
0,1701747,-70.6495,-33.4392,Santiago,Estado / Húerfanos.,120.0,120.0,3,3,7000.0,7000.0,211195810.0,0.0,7000.0,25-08-2021 0:00:00,https://www.toctoc.com/propiedades/compracorredorasr/oficina/santiago/estado-huerfanos/1701747,https://d1cfu8v5n1wsm.cloudfront.net/toctoc/fotos/20210324/1701747/s_wm_fsc_375132103375132841705_1.jpg,venta
0,1838301,-70.5717,-33.4384,La Reina,Principe de Gales,58.0,58.0,1,1,5900.0,5900.0,178007897.0,0.0,5900.0,02-10-2021 0:00:00,https://www.toctoc.com/propiedades/compracorredorasr/oficina/la-reina/principe-de-gales/1838301,https://d1cfu8v5n1wsm.cloudfront.net/toctoc/fotos/20211002/1838301/s_wm_century21oriente_60d1ec9f245fd.jpg,venta
0,1817485,-70.5346,-33.4028,Las Condes,Camino El Alba/Camino Del Algarrobo,0.0,0.0,1,1,6200.0,6200.0,187059146.0,0.0,6200.0,18-09-2021 0:00:00,https://www.toctoc.com/propiedades/compracorredorasr/oficina/las-condes/camino-el-alba-camino-del-algarrobo/1817485,https://d1cfu8v5n1wsm.cloudfront.net/toctoc/fotos/20210904/1817485/s_wm_procasa_propiedades_76538826_1.jpg,venta
0,1745009,-70.5829,-33.4151,Las Condes,Cruz del Sur/Apoquindo,0.0,0.0,3,3,18000.0,18000.0,543074940.0,0.0,18000.0,18-09-2021 0:00:00,https://www.toctoc.com/propiedades/compracorredorasr/oficina/las-condes/cruz-del-sur-apoquindo/1745009,https://d1cfu8v5n1wsm.cloudfront.net/toctoc/fotos/20210527/1745009/s_wm_procasa_propiedades_76538826_1.jpg,venta
0,1750871,-70.5879,-33.418,Las Condes,EN GOLF/RENATO SANCHEZ,806.0,806.0,4,4,45000.0,45000.0,1357687350.0,0.0,45000.0,04-06-2021 0:00:00,https://www.toctoc.com/propiedades/compracorredorasr/oficina/las-condes/en-golf-renato-sanchez/1750871,https://d1cfu8v5n1wsm.cloudfront.net/toctoc/fotos/20210604/1750871/s_wm_procasa_propiedades_88600900_1.jpg,venta
0,1735217,-70.5892,-33.4188,Las Condes,Alcántara cercano a calle Presidente Errazuriz,50.0,50.0,5,5,75000.0,75000.0,2262812250.0,0.0,75000.0,12-05-2021 0:00:00,https://www.toctoc.com/propiedades/compracorredorasr/oficina/las-condes/alcantara-cercano-a-calle-presidente-errazuriz/1735217,https://d1cfu8v5n1wsm.cloudfront.net/toctoc/fotos/20210512/1735217/s_wm_fpd_375847-103375847-856953_1.jpg,venta
0,1822534,-70.5847,-33.4171,Las Condes,Apoquindo con Asturias,336.0,336.0,7,7,34000.0,34000.0,1025808220.0,0.0,34000.0,09-09-2021 0:00:00,https://www.toctoc.com/propiedades/compracorredorasr/oficina/las-condes/apoquindo-con-asturias/1822534,https://d1cfu8v5n1wsm.cloudfront.net/toctoc/fotos/20210909/1822534/s_wm_cumbrereal_68031030068031820653_1.jpg,venta
0,1440039,-70.5864,-33.4157,Las Condes,cercana a estación Metro Esc. Militar,131.0,131.0,3,3,13000.0,13000.0,392220790.0,0.0,13000.0,10-03-2020 0:00:00,https://www.toctoc.com/propiedades/compracorredorasr/oficina/las-condes/cercana-a-estacion-metro-esc-militar/1440039,https://d1cfu8v5n1wsm.cloudfront.net/toctoc/fotos/20200310/1440039/s_wm_lav_33928-103033928-1824885_1.jpg,venta
0,1773230,-70.5675,-33.4121,Las Condes,METRO MANQUEHUE/ CON ESTACIONAMIENTO/ SEMINUEVA,21.0,21.0,1,1,3350.0,3350.0,101072280.5,0.0,3350.0,08-07-2021 0:00:00,https://www.toctoc.com/propiedades/compracorredorasr/oficina/las-condes/metro-manquehue-con-estacionamiento-seminueva/1773230,https://d1cfu8v5n1wsm.cloudfront.net/toctoc/fotos/20210708/1773230/s_wm_prourbe_533231030533232061005_1.jpg,venta
0,1233941,-70.5623,-33.4115,Las Condes,438,560.0,560.0,8,8,26800.0,26800.0,808578244.0,0.0,26800.0,10-06-2020 0:00:00,https://www.toctoc.com/propiedades/compracorredorasr/oficina/las-condes/438/1233941,https://d1cfu8v5n1wsm.cloudfront.net/toctoc/fotos/20190516/1233941/s_wm_agp_64012-103064012-2120775_1.jpg,venta
0,1812221,-70.5675,-33.4121,Las Condes,Rosario Sur,21.0,21.0,1,1,2450.0,2450.0,73918533.5,0.0,2450.0,31-08-2021 0:00:00,https://www.toctoc.com/propiedades/compracorredorasr/oficina/las-condes/rosario-sur/1812221,https://d1cfu8v5n1wsm.cloudfront.net/toctoc/fotos/20210831/1812221/s_wm_century21optima_612d220142fa8.jpg,venta
0,1773231,-70.5679,-33.4117,Las Condes,METRO MANQUEHUE/ ESTACIONAMIENTO / PLUSVALIA,21.0,21.0,1,1,3299.0,3299.0,99533568.17,0.0,3299.0,28-09-2021 0:00:00,https://www.toctoc.com/propiedades/compracorredorasr/oficina/las-condes/metro-manquehue-estacionamiento-plusvalia/1773231,https://d1cfu8v5n1wsm.cloudfront.net/toctoc/fotos/20210708/1773231/s_wm_prourbe_533241030533242066122_1.jpg,venta
0,1127015,-70.5612,-33.4119,Las Condes,Manquehue / IV Centenario,789.0,789.0,4,4,39500.0,39500.0,1191747785.0,0.0,39500.0,06-06-2019 0:00:00,https://www.toctoc.com/propiedades/compracorredorasr/oficina/las-condes/manquehue-iv-centenario/1127015,https://d1cfu8v5n1wsm.cloudfront.net/toctoc/fotos/20181130/1127015/s_wm_viv_59101-103059101-2077934_1.jpg,venta
0,1646471,-72.5883,-38.7401,Temuco,Av. General Aldunate/Claro Solar,0.0,0.0,8,8,30960.0,30960.0,934088896.8,0.0,30960.0,18-09-2021 0:00:00,https://www.toctoc.com/propiedades/compracorredorasr/oficina/temuco/av-general-aldunate-claro-solar/1646471,https://d1cfu8v5n1wsm.cloudfront.net/toctoc/fotos/20210108/1646471/s_wm_procasa_propiedades_76538826_1.jpg,venta
0,1568557,-70.6111,-33.4538,Ñuñoa,Metro Ñuñoa,50.0,50.0,2,2,5250.0,5250.0,158396857.5,0.0,5250.0,01-09-2021 0:00:00,https://www.toctoc.com/propiedades/compracorredorasr/oficina/nunoa/metro-nunoa/1568557,https://d1cfu8v5n1wsm.cloudfront.net/toctoc/fotos/20200924/1568557/s_wm_fph_252999103252999473026_1.jpg,venta
0,1692419,-70.6197,-33.4518,Ñuñoa,Salvador/Irarrázaval,0.0,0.0,3,3,13900.0,13900.0,419374537.0,0.0,13900.0,18-09-2021 0:00:00,https://www.toctoc.com/propiedades/compracorredorasr/oficina/nunoa/salvador-irarrazaval/1692419,https://d1cfu8v5n1wsm.cloudfront.net/toctoc/fotos/20210313/1692419/s_wm_procasa_propiedades_76538826_1.jpg,venta
0,1144948,-70.6546,-33.4393,Santiago,HUERFANOS //SOTERO DEL RIO,0.0,0.0,4,4,9700.0,9700.0,292657051.0,0.0,9700.0,22-12-2020 0:00:00,https://www.toctoc.com/propiedades/compracorredorasr/oficina/santiago/huerfanos-sotero-del-rio/1144948,https://d1cfu8v5n1wsm.cloudfront.net/toctoc/fotos/20181221/1144948/s_wm_procasa_propiedades_76545471_1.jpg,venta
0,1802675,-70.6517,-33.4394,Santiago,Ahumada / Huerfanos,141.04,141.04,2,2,6822.32,6822.32,205835056.93,0.0,6822.32,19-08-2021 0:00:00,https://www.toctoc.com/propiedades/compracorredorasr/oficina/santiago/ahumada-huerfanos/1802675,https://d1cfu8v5n1wsm.cloudfront.net/toctoc/fotos/20210819/1802675/s_wm_vld_794781030794782323929_1.jpg,venta
0,1201254,-70.6517,-33.4394,Santiago,Ahumada / Huérfanos,108.0,108.0,2,2,4500.0,4500.0,135768735.0,0.0,4500.0,27-03-2019 0:00:00,https://www.toctoc.com/propiedades/compracorredorasr/oficina/santiago/ahumada-huerfanos/1201254,https://d1cfu8v5n1wsm.cloudfront.net/toctoc/fotos/20190327/1201254/s_wm_realtycorp_38983-103038983-280876_1.jpg,venta
0,1250574,-70.6527,-33.4396,Santiago,Huérfanos/ Bandera,243.0,243.0,4,4,10800.0,10800.0,325844964.0,0.0,10800.0,13-06-2019 0:00:00,https://www.toctoc.com/propiedades/compracorredorasr/oficina/santiago/huerfanos-bandera/1250574,https://d1cfu8v5n1wsm.cloudfront.net/toctoc/fotos/20190613/1250574/s_wm_realtycorp_41338-103041338-288698_1.jpg,venta
0,1805377,-70.6539,-33.4396,Santiago,(MR) MORANDÉ/COMPAÑIA JESÚS,0.0,0.0,6,6,14500.0,14500.0,437477035.0,0.0,14500.0,24-08-2021 0:00:00,https://www.toctoc.com/propiedades/compracorredorasr/oficina/santiago/mr-morande-compania-jesus/1805377,https://d1cfu8v5n1wsm.cloudfront.net/toctoc/fotos/20210824/1805377/s_wm_procasa_propiedades_76545471_1.jpg,venta
0,1405630,-70.6511,-33.4396,Santiago,Ahumada,108.0,108.0,0,0,4100.0,4100.0,123700403.0,0.0,4100.0,01-10-2021 0:00:00,https://www.toctoc.com/propiedades/compracorredorasr/oficina/santiago/ahumada/1405630,https://d1cfu8v5n1wsm.cloudfront.net/toctoc/fotos/20200122/1405630/s_wm_remax1028063_l_6c7925bdc44c4a89a4b0965fb4718fef.jpg,venta
0,1208022,-70.6532,-33.4392,Santiago,Huérfanos / Ahumada,107.0,107.0,2,2,4800.0,4800.0,144819984.0,0.0,4800.0,26-06-2019 0:00:00,https://www.toctoc.com/propiedades/compracorredorasr/oficina/santiago/huerfanos-ahumada/1208022,https://d1cfu8v5n1wsm.cloudfront.net/toctoc/fotos/20190405/1208022/s_wm_viv_62539-103062539-2108763_1.jpg,venta
0,1828412,-71.5444,-33.0105,Viña del Mar,"(NMD) 13 Norte Lado Oriente, Viña del mar",278.0,278.0,2,2,12000.0,12000.0,362049960.0,0.0,12000.0,20-09-2021 0:00:00,https://www.toctoc.com/propiedades/compracorredorasr/oficina/vina-del-mar/nmd-13-norte-lado-oriente-vina-del-mar/1828412,https://d1cfu8v5n1wsm.cloudfront.net/toctoc/fotos/20210920/1828412/s_wm_elittepropiedades_68601030068601836611_1.jpg,venta
0,1827704,-71.5408,-33.0176,Viña del Mar,7 Norte / Sporting Club,317.0,317.0,3,3,12500.0,12500.0,377135375.0,0.0,12500.0,17-09-2021 0:00:00,https://www.toctoc.com/propiedades/compracorredorasr/oficina/vina-del-mar/7-norte-sporting-club/1827704,https://d1cfu8v5n1wsm.cloudfront.net/toctoc/fotos/20210917/1827704/s_wm_vie_797611030797612330133_1.jpg,venta
0,1823970,-70.6315,-33.4364,Providencia,VISTA AL PARQUE  -AV CONDELL-    METRO SALVADOR/FRENTE A PARQUE BALMACEDA,0.0,0.0,4,4,8900.0,8900.0,268520387.0,0.0,8900.0,11-09-2021 0:00:00,https://www.toctoc.com/propiedades/compracorredorasr/oficina/providencia/vista-al-parque-av-condell-metro-salvador-frente-a-parque-balmaceda/1823970,https://d1cfu8v5n1wsm.cloudfront.net/toctoc/fotos/20210911/1823970/s_wm_procasa_propiedades_85514800_1.jpg,venta
0,1270276,-70.6014,-33.4158,Las Condes,San Sebastián / El Bosque,296.0,296.0,0,0,26952.0,26952.0,813164210.16,0.0,26952.0,13-07-2019 0:00:00,https://www.toctoc.com/propiedades/compracorredorasr/oficina/las-condes/san-sebastian-el-bosque/1270276,https://d1cfu8v5n1wsm.cloudfront.net/toctoc/fotos/20190713/1270276/s_wm_realtycorp_41490-103041490-291297_1.jpg,venta
0,1628025,-70.6071,-33.4195,Providencia,Excelente estado/entre Los Leones y Bucarest,56.85,56.85,1,1,4900.0,4900.0,147837067.0,0.0,4900.0,07-09-2021 0:00:00,https://www.toctoc.com/propiedades/compracorredorasr/oficina/providencia/excelente-estado-entre-los-leones-y-bucarest/1628025,https://d1cfu8v5n1wsm.cloudfront.net/toctoc/fotos/20201207/1628025/s_wm_prourbe_526091030526092045043_1.jpg,venta
0,1810154,-70.6049,-33.415,Las Condes,Andrés Bello/Vitacura,151.0,151.0,3,3,12300.0,12300.0,371101209.0,0.0,12300.0,28-08-2021 0:00:00,https://www.toctoc.com/propiedades/compracorredorasr/oficina/las-condes/andres-bello-vitacura/1810154,https://d1cfu8v5n1wsm.cloudfront.net/toctoc/fotos/20210828/1810154/s_wm_fic_377678103377678898859_1.jpg,venta
0,1803793,-70.6047,-33.4147,Las Condes,"Amplia oficina, 3 estacionamientos. Edificio de la Industria. Andrés Bello/Vitacura",151.0,151.0,3,3,12300.0,12300.0,371101209.0,0.0,12300.0,20-08-2021 0:00:00,https://www.toctoc.com/propiedades/compracorredorasr/oficina/las-condes/amplia-oficina-3-estacionamientos-edificio-de-la-industria-andres-bello-vitacura/1803793,https://d1cfu8v5n1wsm.cloudfront.net/toctoc/fotos/20210820/1803793/s_wm_prourbe_534381030534382063731_1.jpg,venta
0,1823534,-70.6062,-33.416,Las Condes,Avenida Nueva Tajamar/ Avenida Andres Bello,200.0,200.0,2,2,13900.0,13900.0,419374537.0,0.0,13900.0,10-09-2021 0:00:00,https://www.toctoc.com/propiedades/compracorredorasr/oficina/las-condes/avenida-nueva-tajamar-avenida-andres-bello/1823534,https://d1cfu8v5n1wsm.cloudfront.net/toctoc/fotos/20210910/1823534/s_wm_realtycorp_45892103045892341178_1.jpg,venta
0,1365932,-70.5611,-33.3939,Vitacura,Gerónimo de Alderete,35.0,35.0,1,1,4780.0,4780.0,144216567.4,0.0,4780.0,17-04-2020 0:00:00,https://www.toctoc.com/propiedades/compracorredorasr/oficina/vitacura/geronimo-de-alderete/1365932,https://d1cfu8v5n1wsm.cloudfront.net/toctoc/fotos/20191128/1365932/s_wm_oss_72430-103072430-2176373_1.jpg,venta
0,1365931,-70.5611,-33.3939,Vitacura,Gerónimo de Alderete,54.0,54.0,1,1,7100.0,7100.0,214212893.0,0.0,7100.0,17-04-2020 0:00:00,https://www.toctoc.com/propiedades/compracorredorasr/oficina/vitacura/geronimo-de-alderete/1365931,https://d1cfu8v5n1wsm.cloudfront.net/toctoc/fotos/20191128/1365931/s_wm_oss_72429-103072429-2176367_1.jpg,venta
0,1378631,-70.5631,-33.3948,Vitacura,KENNEDY GERONIMO DE ALDERETE,25.0,25.0,1,1,2800.0,2800.0,84478324.0,0.0,2800.0,12-12-2019 0:00:00,https://www.toctoc.com/propiedades/compracorredorasr/oficina/vitacura/kennedy-geronimo-de-alderete/1378631,https://d1cfu8v5n1wsm.cloudfront.net/toctoc/fotos/20191212/1378631/s_wm_vrp_72906-103072906-2185955_1.jpg,venta
0,1722345,-70.5635,-33.3949,Vitacura,Kennedy - Gerónimo de Alderete,24.0,24.0,1,1,3000.0,3000.0,90512490.0,0.0,3000.0,23-04-2021 0:00:00,https://www.toctoc.com/propiedades/compracorredorasr/oficina/vitacura/kennedy-geronimo-de-alderete/1722345,https://d1cfu8v5n1wsm.cloudfront.net/toctoc/fotos/20210423/1722345/s_wm_thekeyproperties_10849-103010849-1847493_1.jpg,venta
0,1712507,-70.5654,-33.3953,Vitacura,Geronimo de Alderete,26.0,26.0,1,1,3300.0,3300.0,99563739.0,0.0,3300.0,10-04-2021 0:00:00,https://www.toctoc.com/propiedades/compracorredorasr/oficina/vitacura/geronimo-de-alderete/1712507,https://d1cfu8v5n1wsm.cloudfront.net/toctoc/fotos/20210410/1712507/s_wm_fph_252865-103252865-472400_1.jpg,venta
0,1804080,-70.617,-33.4306,Providencia,Antonio Varas,30.0,30.0,1,1,2950.0,2950.0,89003948.5,0.0,2950.0,21-08-2021 0:00:00,https://www.toctoc.com/propiedades/compracorredorasr/oficina/providencia/antonio-varas/1804080,https://d1cfu8v5n1wsm.cloudfront.net/toctoc/fotos/20210821/1804080/s_wm_century21andes_5edec4de073ad.jpg,venta
0,1418124,-70.6178,-33.4325,Providencia,Manuel Montt,300.0,300.0,2,2,23500.0,23500.0,709014505.0,0.0,23500.0,05-11-2020 0:00:00,https://www.toctoc.com/propiedades/compracorredorasr/oficina/providencia/manuel-montt/1418124,https://d1cfu8v5n1wsm.cloudfront.net/toctoc/fotos/20200207/1418124/s_wm_century21aprica_5e3dab573820f.jpg,venta
0,1712709,-70.6176,-33.4309,Providencia,"Metro Manuel Montt, Providencia",30.0,30.0,1,1,2950.0,2950.0,89003948.5,0.0,2950.0,03-08-2021 0:00:00,https://www.toctoc.com/propiedades/compracorredorasr/oficina/providencia/metro-manuel-montt-providencia/1712709,https://d1cfu8v5n1wsm.cloudfront.net/toctoc/fotos/20210410/1712709/s_wm_schumacherpropiedades_780971030780972290854_1.jpg,venta
0,1832242,-70.6158,-33.4306,Providencia,A 1 cuadra de Av. Nueva Providencia y a pasos de Metro Manuel Montt,71.0,71.0,2,2,6990.0,6990.0,210894101.7,0.0,6990.0,24-09-2021 0:00:00,https://www.toctoc.com/propiedades/compracorredorasr/oficina/providencia/a-1-cuadra-de-av-nueva-providencia-y-a-pasos-de-metro-manuel-montt/1832242,https://d1cfu8v5n1wsm.cloudfront.net/toctoc/fotos/20210924/1832242/s_wm_grupopremium_278101030278102038554_1.jpg,venta
0,1504249,-70.6175,-33.4301,Providencia,"Metro Manuel Montt, Providencia",30.0,30.0,1,1,2950.0,2950.0,89003948.5,0.0,2950.0,04-08-2021 0:00:00,https://www.toctoc.com/propiedades/compracorredorasr/oficina/providencia/metro-manuel-montt-providencia/1504249,https://d1cfu8v5n1wsm.cloudfront.net/toctoc/fotos/20200624/1504249/s_wm_schumacherpropiedades_746531030746532221836_1.jpg,venta
0,686622,-70.6296,-33.442,Providencia,Seminario / Av. Providencia,747.0,747.0,5,5,947000000.0,947000000.0,31387.93,31387.93,31387.93,09-03-2020 0:00:00,https://www.toctoc.com/propiedades/compracorredorasr/oficina/providencia/seminario-av-providencia/686622,https://d1cfu8v5n1wsm.cloudfront.net/toctoc/fotos/20161112/686622/s_wm_cys_34414-103034414-1829964_1.jpg,venta
0,1814671,-70.6277,-33.4419,Providencia,Casa comercial en venta con amplio uso de suelo en Providencia,407.0,407.0,7,7,21547.0,21547.0,650090874.01,0.0,21547.0,02-09-2021 0:00:00,https://www.toctoc.com/propiedades/compracorredorasr/oficina/providencia/casa-comercial-en-venta-con-amplio-uso-de-suelo-en-providencia/1814671,https://d1cfu8v5n1wsm.cloudfront.net/toctoc/fotos/20210902/1814671/s_wm_nexxos_510861030510862268123_1.jpg,venta
0,1377741,-70.6226,-33.4472,Providencia,Lautaro / Fresia,380.0,380.0,2,2,19000.0,19000.0,573245770.0,0.0,19000.0,11-12-2019 0:00:00,https://www.toctoc.com/propiedades/compracorredorasr/oficina/providencia/lautaro-fresia/1377741,https://d1cfu8v5n1wsm.cloudfront.net/toctoc/fotos/20191211/1377741/s_wm_viv_72870-103072870-2186702_1.jpg,venta
0,1561701,-70.6299,-33.4403,Providencia,SEMINARIO CON RANCAGUA,354.0,354.0,3,3,36000.0,36000.0,1086149880.0,0.0,36000.0,11-08-2021 0:00:00,https://www.toctoc.com/propiedades/compracorredorasr/oficina/providencia/seminario-con-rancagua/1561701,https://d1cfu8v5n1wsm.cloudfront.net/toctoc/fotos/20200916/1561701/s_wm_invictuschile_753681030753682236024_1.jpg,venta
0,1797310,-70.5976,-33.399,Vitacura,Nueva Costanera,615.0,615.0,5,5,70000.0,70000.0,2111958100.0,0.0,70000.0,13-08-2021 0:00:00,https://www.toctoc.com/propiedades/compracorredorasr/oficina/vitacura/nueva-costanera/1797310,https://d1cfu8v5n1wsm.cloudfront.net/toctoc/fotos/20210813/1797310/s_wm_sothebys_162136103162136200644_1.jpg,venta
0,1351138,-70.5929,-33.3926,Vitacura,AMÉRICO VESPUCIO/ FRANCISCO DE AGUIRRE,190.0,190.0,1,1,18200.0,18200.0,549109106.0,0.0,18200.0,08-11-2019 0:00:00,https://www.toctoc.com/propiedades/compracorredorasr/oficina/vitacura/americo-vespucio-francisco-de-aguirre/1351138,https://d1cfu8v5n1wsm.cloudfront.net/toctoc/fotos/20191108/1351138/s_wm_lyb_72366-103072366-2175108_1.jpg,venta
0,1429015,-70.6533,-33.4409,Santiago,MORANDÉ ESQUINA AGUSTINAS,500.0,500.0,3,3,17900.0,17900.0,540057857.0,0.0,17900.0,25-02-2020 0:00:00,https://www.toctoc.com/propiedades/compracorredorasr/oficina/santiago/morande-esquina-agustinas/1429015,https://d1cfu8v5n1wsm.cloudfront.net/toctoc/fotos/20200225/1429015/s_wm_lyb_47302-103047302-1953358_1.jpg,venta
0,1828713,-70.6521,-33.4424,Santiago,Se vende oficina bandera,0.0,0.0,0,0,5800.0,5800.0,174990814.0,0.0,5800.0,21-09-2021 0:00:00,https://www.toctoc.com/propiedades/compracorredorasr/oficina/santiago/se-vende-oficina-bandera/1828713,https://d1cfu8v5n1wsm.cloudfront.net/toctoc/fotos/20210921/1828713/s_wm_remax1028080_l_4fc623ca574e4fa0864d271e0e9c5713.jpg,venta
0,1112734,-70.6512199,-33.4409013,Santiago,Se vende excelente oficina en sector Santiago centro,176.0,176.0,5,5,8900.0,8900.0,268520387.0,0.0,8900.0,07-11-2018 0:00:00,https://www.toctoc.com/propiedades/compracorredorasr/oficina/santiago/se-vende-excelente-oficina-en-sector-santiago-centro/1112734,https://d1cfu8v5n1wsm.cloudfront.net/toctoc/fotos/20181107/1112734/s_wm_6385e00f-e696-4344-86ba-bebc80f89cca_20181107_181703.jpg,venta
0,1614394,-70.6546,-33.4443,Santiago,Libertador Bernardo O´higgins / Teatinos,220.0,220.0,3,3,380000000.0,380000000.0,12594.95,12594.95,12594.95,31-03-2021 0:00:00,https://www.toctoc.com/propiedades/compracorredorasr/oficina/santiago/libertador-bernardo-o-higgins-teatinos/1614394,https://d1cfu8v5n1wsm.cloudfront.net/toctoc/fotos/20201118/1614394/s_wm_fpa_372779-103372779-842679_1.jpg,venta
0,1591762,-70.6529,-33.4489,Santiago,Padre Miguel de Olivares/Avenida Presidente Bulnes (Pase Bulnes),180.0,180.0,3,3,9900.0,9900.0,298691217.0,0.0,9900.0,18-09-2021 0:00:00,https://www.toctoc.com/propiedades/compracorredorasr/oficina/santiago/padre-miguel-de-olivares-avenida-presidente-bulnes-pase-bulnes/1591762,https://d1cfu8v5n1wsm.cloudfront.net/toctoc/fotos/20201021/1591762/s_wm_procasa_propiedades_76538826_1.jpg,venta
0,1821607,-70.6556,-33.4402,Santiago,huérfanos 1332,155.0,155.0,3,3,37.0,37.0,1116320.71,0.0,37.0,08-09-2021 0:00:00,https://www.toctoc.com/propiedades/compracorredorasr/oficina/santiago/huerfanos-1332/1821607,https://d1cfu8v5n1wsm.cloudfront.net/toctoc/fotos/20210908/1821607/s_wm_nexxos_513401030513402272854_1.jpg,venta
0,1373006,-70.5747,-33.4122,Las Condes,APOQUINDO/ROSA O´HIGGINS,500.0,500.0,4,4,30000.0,30000.0,905124900.0,0.0,30000.0,06-12-2019 0:00:00,https://www.toctoc.com/propiedades/compracorredorasr/oficina/las-condes/apoquindo-rosa-o-higgins/1373006,https://d1cfu8v5n1wsm.cloudfront.net/toctoc/fotos/20191206/1373006/s_wm_lyb_72797-103072797-2184419_1.jpg,venta
0,1634827,-70.5752,-33.4107,Las Condes,"Entre Warren Smith y La Gloria, vereda norte",240.0,240.0,3,3,15900.0,15900.0,479716197.0,0.0,15900.0,31-08-2021 0:00:00,https://www.toctoc.com/propiedades/compracorredorasr/oficina/las-condes/entre-warren-smith-y-la-gloria-vereda-norte/1634827,https://d1cfu8v5n1wsm.cloudfront.net/toctoc/fotos/20201217/1634827/s_wm_invictuschile_768911030768912265761_1.jpg,venta
0,1504578,-70.5787,-33.4164,Las Condes,Apoquindo - San Pascual,711.0,711.0,3,3,29500.0,29500.0,890039485.0,0.0,29500.0,19-07-2021 0:00:00,https://www.toctoc.com/propiedades/compracorredorasr/oficina/las-condes/apoquindo-san-pascual/1504578,https://d1cfu8v5n1wsm.cloudfront.net/toctoc/fotos/20200624/1504578/s_wm_sothebys_161315103161315180632_1.jpg,venta
0,1841025,-70.5788,-33.4127,Las Condes,Luis Rodriguez Velasco,245.0,245.0,4,4,17000.0,17000.0,512904110.0,0.0,17000.0,07-10-2021 0:00:00,https://www.toctoc.com/propiedades/compracorredorasr/oficina/las-condes/luis-rodriguez-velasco/1841025,https://d1cfu8v5n1wsm.cloudfront.net/toctoc/fotos/20211007/1841025/s_wm_aag_799561030799562335331_1.jpg,venta
0,1804079,-70.6502,-33.4529,Santiago,San Diego,510.0,510.0,0,0,33600.0,33600.0,1013739888.0,0.0,33600.0,21-08-2021 0:00:00,https://www.toctoc.com/propiedades/compracorredorasr/oficina/santiago/san-diego/1804079,https://d1cfu8v5n1wsm.cloudfront.net/toctoc/fotos/20210821/1804079/s_wm_century21andes_5d2d1b6280dc0.jpg,venta
0,1823520,-71.6018,-33.0416,Valparaíso,Barón,424.0,424.0,3,3,467500000.0,467500000.0,15495.1,15495.1,15495.1,10-09-2021 0:00:00,https://www.toctoc.com/propiedades/compracorredorasr/oficina/valparaiso/baron/1823520,https://d1cfu8v5n1wsm.cloudfront.net/toctoc/fotos/20210910/1823520/s_wm_fvi_377880103377880903337_1.jpg,venta
0,1812382,-70.6277,-33.4507,Ñuñoa,Seminario,484.0,484.0,5,5,21500.0,21500.0,648672845.0,0.0,21500.0,31-08-2021 0:00:00,https://www.toctoc.com/propiedades/compracorredorasr/oficina/nunoa/seminario/1812382,https://d1cfu8v5n1wsm.cloudfront.net/toctoc/fotos/20210831/1812382/s_wm_century21terra_60fb4114156a3.jpg,venta
0,1817975,-70.607,-33.4416,Providencia,"Pedro de Valdivia, Bustos, Metro Inés de Suarez",418.0,418.0,4,4,23000.0,23000.0,693929090.0,0.0,23000.0,06-09-2021 0:00:00,https://www.toctoc.com/propiedades/compracorredorasr/oficina/providencia/pedro-de-valdivia-bustos-metro-ines-de-suarez/1817975,https://d1cfu8v5n1wsm.cloudfront.net/toctoc/fotos/20210906/1817975/s_wm_nexxos_511971030511972270083_1.jpg,venta
0,1272983,-70.6095,-33.4462,Ñuñoa,ANTONIO VARAS /PEDRO DE VALDIVIA,580.0,580.0,5,5,22500.0,22500.0,678843675.0,0.0,22500.0,23-08-2021 0:00:00,https://www.toctoc.com/propiedades/compracorredorasr/oficina/nunoa/antonio-varas-pedro-de-valdivia/1272983,https://d1cfu8v5n1wsm.cloudfront.net/toctoc/fotos/20190719/1272983/s_wm_berrioszegers_propiedades_34724103034724904056_1.jpg,venta
0,1834618,-70.6016,-33.4549,Ñuñoa,Avenida Irarrazaval,25.0,25.0,1,1,55000000.0,55000000.0,1822.95,1822.95,1822.95,28-09-2021 0:00:00,https://www.toctoc.com/propiedades/compracorredorasr/oficina/nunoa/avenida-irarrazaval/1834618,https://d1cfu8v5n1wsm.cloudfront.net/toctoc/fotos/20210923/1834618/s_wm_century21cumbres_6053ef4eeb917.jpg,venta
0,1826112,-70.6062,-33.4538,Ñuñoa,Irarrazaval,0.0,0.0,0,0,2400.0,2400.0,72409992.0,0.0,2400.0,15-09-2021 0:00:00,https://www.toctoc.com/propiedades/compracorredorasr/oficina/nunoa/irarrazaval/1826112,https://d1cfu8v5n1wsm.cloudfront.net/toctoc/fotos/20210915/1826112/s_wm_remax1028072_l_c5ae18b8aced40499221b6580b43b569.jpg,venta
0,1739054,-70.6009,-33.4548,Ñuñoa,Exequiel Fernández y Los Tres Antonios,35.0,35.0,1,1,3101.57,3101.57,93576941.2,0.0,3101.57,19-05-2021 0:00:00,https://www.toctoc.com/propiedades/compracorredorasr/oficina/nunoa/exequiel-fernandez-y-los-tres-antonios/1739054,https://d1cfu8v5n1wsm.cloudfront.net/toctoc/fotos/20210519/1739054/s_wm_fpn_375849-103375849-857809_1.jpg,venta
0,1782420,-70.58,-33.4246,Las Condes,Rodrigo de Triana,880.0,880.0,5,5,39500.0,39500.0,1191747785.0,0.0,39500.0,24-07-2021 0:00:00,https://www.toctoc.com/propiedades/compracorredorasr/oficina/las-condes/rodrigo-de-triana/1782420,https://d1cfu8v5n1wsm.cloudfront.net/toctoc/fotos/20210724/1782420/s_wm_century21pro_60fb0446b7f93.jpg,venta
0,1841310,-70.6139,-33.4258,Providencia,Nueva Providencia,22.0,22.0,1,1,2290.0,2290.0,69091200.7,0.0,2290.0,07-10-2021 0:00:00,https://www.toctoc.com/propiedades/compracorredorasr/oficina/providencia/nueva-providencia/1841310,https://d1cfu8v5n1wsm.cloudfront.net/toctoc/fotos/20211007/1841310/s_wm_century21pro_615ddcf83e375.jpg,venta
0,1813433,-70.6126,-33.4242,Providencia,Providencia,467.0,467.0,4,4,27347.0,27347.0,825081688.01,0.0,27347.0,01-09-2021 0:00:00,https://www.toctoc.com/propiedades/compracorredorasr/oficina/providencia/providencia/1813433,https://d1cfu8v5n1wsm.cloudfront.net/toctoc/fotos/20210901/1813433/s_wm_century21andes_5da77112c2a67.jpg,venta
0,1771096,-70.6118,-33.4251,Providencia,En Exclusiva Casa Comercial- Pedro de Valdivia,422.0,422.0,4,4,35000.0,35000.0,1055979050.0,0.0,35000.0,06-07-2021 0:00:00,https://www.toctoc.com/propiedades/compracorredorasr/oficina/providencia/en-exclusiva-casa-comercial-pedro-de-valdivia/1771096,https://d1cfu8v5n1wsm.cloudfront.net/toctoc/fotos/20210706/1771096/s_wm_romopropiedades_135454103135454186672_1.jpg,venta
0,1618534,-70.6152,-33.4258,Providencia,Metro Pedro de Valdivia,259.0,259.0,3,3,27200.0,27200.0,820646576.0,0.0,27200.0,13-05-2021 0:00:00,https://www.toctoc.com/propiedades/compracorredorasr/oficina/providencia/metro-pedro-de-valdivia/1618534,https://d1cfu8v5n1wsm.cloudfront.net/toctoc/fotos/20201123/1618534/s_wm_match_inmobiliario_114588-103114588-1819417_1.jpg,venta
0,1792622,-70.6105,-33.4245,Providencia,Guardia Vieja / Barcelona / P. de Valdivia,146.0,146.0,5,5,12750.0,12750.0,384678082.5,0.0,12750.0,05-08-2021 0:00:00,https://www.toctoc.com/propiedades/compracorredorasr/oficina/providencia/guardia-vieja-barcelona-p-de-valdivia/1792622,https://d1cfu8v5n1wsm.cloudfront.net/toctoc/fotos/20210805/1792622/s_wm_realtycorp_45787103045787337409_1.jpg,venta
0,1810152,-70.6188,-33.4291,Providencia,Providencia/Manuel Montt,154.0,154.0,4,4,16900.0,16900.0,509887027.0,0.0,16900.0,28-08-2021 0:00:00,https://www.toctoc.com/propiedades/compracorredorasr/oficina/providencia/providencia-manuel-montt/1810152,https://d1cfu8v5n1wsm.cloudfront.net/toctoc/fotos/20210828/1810152/s_wm_fap_377643103377643898572_1.jpg,venta
0,1802970,-70.6193,-33.4247,Providencia,Antonio Bellet / Andrés Bello Amoblada,200.0,200.0,4,4,27500.0,27500.0,829697825.0,0.0,27500.0,20-08-2021 0:00:00,https://www.toctoc.com/propiedades/compracorredorasr/oficina/providencia/antonio-bellet-andres-bello-amoblada/1802970,https://d1cfu8v5n1wsm.cloudfront.net/toctoc/fotos/20210820/1802970/s_wm_viv_794941030794942324245_1.jpg,venta
0,1802551,-70.6161,-33.4265,Providencia,"Av Providencia, Padre Mariano, Metro P de Valdivia",70.0,70.0,2,2,7250.0,7250.0,218738517.5,0.0,7250.0,19-08-2021 0:00:00,https://www.toctoc.com/propiedades/compracorredorasr/oficina/providencia/av-providencia-padre-mariano-metro-p-de-valdivia/1802551,https://d1cfu8v5n1wsm.cloudfront.net/toctoc/fotos/20210819/1802551/s_wm_nexxos_505741030505742258444_1.jpg,venta
0,1553533,-70.6175,-33.4261,Providencia,Moderna Clinica Estética Metro Pedro De Valdivia,210.0,210.0,5,5,24500.0,24500.0,739185335.0,0.0,24500.0,19-08-2021 0:00:00,https://www.toctoc.com/propiedades/compracorredorasr/oficina/providencia/moderna-clinica-estetica-metro-pedro-de-valdivia/1553533,https://d1cfu8v5n1wsm.cloudfront.net/toctoc/fotos/20200905/1553533/s_wm_prourbe_519291030519292032338_1.jpg,venta
0,1481041,-70.6151,-33.4247,Providencia,LA CONCEPCION/PROVIDENCIA,104.0,104.0,4,4,9000.0,9000.0,271537470.0,0.0,9000.0,16-05-2020 0:00:00,https://www.toctoc.com/propiedades/compracorredorasr/oficina/providencia/la-concepcion-providencia/1481041,https://d1cfu8v5n1wsm.cloudfront.net/toctoc/fotos/20200516/1481041/s_wm_lyb_74368-103074368-2215746_1.jpg,venta
0,1680830,-70.614,-33.425,Providencia,metro P de Valdivia,130.0,130.0,2,2,8800.0,8800.0,265503304.0,0.0,8800.0,26-02-2021 0:00:00,https://www.toctoc.com/propiedades/compracorredorasr/oficina/providencia/metro-p-de-valdivia/1680830,https://d1cfu8v5n1wsm.cloudfront.net/toctoc/fotos/20210225/1680830/s_wm_flr_373876-103373876-813604_1.jpg,venta
0,1806875,-70.6107,-33.4275,Providencia,Amplia oficina remodelada en Pedro de Valdivia,168.0,168.0,2,2,14000.0,14000.0,422391620.0,0.0,14000.0,25-08-2021 0:00:00,https://www.toctoc.com/propiedades/compracorredorasr/oficina/providencia/amplia-oficina-remodelada-en-pedro-de-valdivia/1806875,https://d1cfu8v5n1wsm.cloudfront.net/toctoc/fotos/20210825/1806875/s_wm_nexxos_507891030507892262189_1.jpg,venta
0,1497485,-70.6159,-33.4265,Providencia,Padre Mariano/Avenida Providencia,0.0,0.0,1,1,96685915.0,96685915.0,3204.62,3204.62,3204.62,18-09-2021 0:00:00,https://www.toctoc.com/propiedades/compracorredorasr/oficina/providencia/padre-mariano-avenida-providencia/1497485,https://d1cfu8v5n1wsm.cloudfront.net/toctoc/fotos/20200616/1497485/s_wm_procasa_propiedades_76538826_1.jpg,venta
0,1169803,-70.6106,-33.4233,Providencia,RICARDO LYON/ GUARDIA VIEJA,0.0,0.0,2,2,6890.0,6890.0,207877018.7,0.0,6890.0,05-02-2019 0:00:00,https://www.toctoc.com/propiedades/compracorredorasr/oficina/providencia/ricardo-lyon-guardia-vieja/1169803,https://d1cfu8v5n1wsm.cloudfront.net/toctoc/fotos/20190205/1169803/s_wm_alaluf_propiedades_23212_img_6271.jpg,venta
0,1831257,-70.5903,-33.401,Vitacura,Alonso de Córdova - El Ulmo,510.0,510.0,4,4,32500.0,32500.0,980551975.0,0.0,32500.0,23-09-2021 0:00:00,https://www.toctoc.com/propiedades/compracorredorasr/oficina/vitacura/alonso-de-cordova-el-ulmo/1831257,https://d1cfu8v5n1wsm.cloudfront.net/toctoc/fotos/20210923/1831257/s_wm_sothebys_162179103162179201963_1.jpg,venta
0,1382218,-70.5977,-33.4021,Vitacura,Alonso de Monroy / Alonso de Córdova,180.0,180.0,0,0,23000.0,23000.0,693929090.0,0.0,23000.0,18-12-2019 0:00:00,https://www.toctoc.com/propiedades/compracorredorasr/oficina/vitacura/alonso-de-monroy-alonso-de-cordova/1382218,https://d1cfu8v5n1wsm.cloudfront.net/toctoc/fotos/20191218/1382218/s_wm_sothebys_161136-103161136-176117_1.jpg,venta
0,1830549,-70.5934,-33.4041,Vitacura,El Litre/ Alonso de Cordova,485.0,485.0,3,3,30000.0,30000.0,905124900.0,0.0,30000.0,22-09-2021 0:00:00,https://www.toctoc.com/propiedades/compracorredorasr/oficina/vitacura/el-litre-alonso-de-cordova/1830549,https://d1cfu8v5n1wsm.cloudfront.net/toctoc/fotos/20210922/1830549/s_wm_lyb_798091030798092333030_1.jpg,venta
0,1791431,-70.5938,-33.4027,Vitacura,Alonso de Córdova,485.0,485.0,3,3,30000.0,30000.0,905124900.0,0.0,30000.0,04-08-2021 0:00:00,https://www.toctoc.com/propiedades/compracorredorasr/oficina/vitacura/alonso-de-cordova/1791431,https://d1cfu8v5n1wsm.cloudfront.net/toctoc/fotos/20210804/1791431/s_wm_sothebys_162117103162117200080_1.jpg,venta
0,1805436,-70.5714,-33.4072,Las Condes,Alonso de Cordova,84.0,84.0,2,2,8500.0,8500.0,256452055.0,0.0,8500.0,24-08-2021 0:00:00,https://www.toctoc.com/propiedades/compracorredorasr/oficina/las-condes/alonso-de-cordova/1805436,https://d1cfu8v5n1wsm.cloudfront.net/toctoc/fotos/20210824/1805436/s_wm_century21oriente_612404e283649.jpg,venta
0,1703588,-70.5705,-33.4054,Las Condes,Los Militares - Av. Manquehue Norte,1005.0,1005.0,4,4,80000.0,80000.0,2413666400.0,0.0,80000.0,26-03-2021 0:00:00,https://www.toctoc.com/propiedades/compracorredorasr/oficina/las-condes/los-militares-av-manquehue-norte/1703588,https://d1cfu8v5n1wsm.cloudfront.net/toctoc/fotos/20210326/1703588/s_wm_thekeyproperties_10801-103010801-1846514_1.jpg,venta
0,1814046,-70.5711,-33.4089,Las Condes,Rosario norte con Apoquindo,32.0,32.0,2,2,3800.0,3800.0,114649154.0,0.0,3800.0,01-09-2021 0:00:00,https://www.toctoc.com/propiedades/compracorredorasr/oficina/las-condes/rosario-norte-con-apoquindo/1814046,https://d1cfu8v5n1wsm.cloudfront.net/toctoc/fotos/20210901/1814046/s_wm_viv_795931030795932326552_1.jpg,venta
0,1644663,-70.57,-33.4075,Las Condes,Alonso de Córdova/Balmoral,0.0,0.0,2,2,5596.0,5596.0,168835964.68,0.0,5596.0,18-09-2021 0:00:00,https://www.toctoc.com/propiedades/compracorredorasr/oficina/las-condes/alonso-de-cordova-balmoral/1644663,https://d1cfu8v5n1wsm.cloudfront.net/toctoc/fotos/20210106/1644663/s_wm_procasa_propiedades_76538826_1.jpg,venta
0,1813379,-70.5701,-33.4049,Las Condes,Cerro El Plomo,22.0,22.0,1,1,3200.0,3200.0,96546656.0,0.0,3200.0,01-09-2021 0:00:00,https://www.toctoc.com/propiedades/compracorredorasr/oficina/las-condes/cerro-el-plomo/1813379,https://d1cfu8v5n1wsm.cloudfront.net/toctoc/fotos/20210901/1813379/s_wm_century21andes_thumb965ed1478734278.jpg,venta
0,1797564,-70.5728,-33.4065,Las Condes,Entre Parque Arauco y Metro Manquehue,22.0,22.0,1,1,2950.0,2950.0,89003948.5,0.0,2950.0,13-08-2021 0:00:00,https://www.toctoc.com/propiedades/compracorredorasr/oficina/las-condes/entre-parque-arauco-y-metro-manquehue/1797564,https://d1cfu8v5n1wsm.cloudfront.net/toctoc/fotos/20210813/1797564/s_wm_bfl_794091030794092322292_1.jpg,venta
0,1200113,-70.515,-33.3608,Lo Barnechea,Portal La Dehesa,45.0,45.0,1,1,4300.0,4300.0,129734569.0,0.0,4300.0,25-03-2019 0:00:00,https://www.toctoc.com/propiedades/compracorredorasr/oficina/lo-barnechea/portal-la-dehesa/1200113,https://d1cfu8v5n1wsm.cloudfront.net/toctoc/fotos/20190325/1200113/s_wm_vld_53430-103053430-2009960_1.jpg,venta
0,887238,-70.5111,-33.3684,Lo Barnechea,AVENIDA LA DEHESA,46.0,46.0,1,1,5200.0,5200.0,156888316.0,0.0,5200.0,06-02-2019 0:00:00,https://www.toctoc.com/propiedades/compracorredorasr/oficina/lo-barnechea/avenida-la-dehesa/887238,https://d1cfu8v5n1wsm.cloudfront.net/toctoc/fotos/20171020/887238/s_wm_vld_51890-103051890-1982314_1.jpg,venta
0,1828299,-70.5134,-33.3651,Lo Barnechea,Lider La Dehesa,83.0,83.0,2,2,7200.0,7200.0,217229976.0,0.0,7200.0,20-09-2021 0:00:00,https://www.toctoc.com/propiedades/compracorredorasr/oficina/lo-barnechea/lider-la-dehesa/1828299,https://d1cfu8v5n1wsm.cloudfront.net/toctoc/fotos/20210920/1828299/s_wm_hob_797671030797672330310_1.jpg,venta
0,1576893,-70.5511,-33.407,Las Condes,Chesterton - Apoquindo,406.0,406.0,2,2,16700.0,16700.0,503852861.0,0.0,16700.0,02-10-2020 0:00:00,https://www.toctoc.com/propiedades/compracorredorasr/oficina/las-condes/chesterton-apoquindo/1576893,https://d1cfu8v5n1wsm.cloudfront.net/toctoc/fotos/20201002/1576893/s_wm_realtycorp_44886-103044886-318733_1.jpg,venta
0,1155928,-72.6671,-38.2535,Traiguén,General Pinto Traiguén,12500.0,12500.0,0,0,3.0,3.0,90512.49,0.0,3.0,10-01-2019 0:00:00,https://www.toctoc.com/propiedades/compracorredorasr/oficina/traiguen/general-pinto-traiguen/1155928,https://d1cfu8v5n1wsm.cloudfront.net/toctoc/fotos/20190109/1155928/s_wm_habiter_29449-103029449-1869153_1.jpg,venta
0,1841210,-70.6144,-33.4433,Providencia,MANUEL MONTT/LOS CAPITANES,122.0,122.0,3,3,279000000.0,279000000.0,9247.34,9247.34,9247.34,07-10-2021 0:00:00,https://www.toctoc.com/propiedades/compracorredorasr/oficina/providencia/manuel-montt-los-capitanes/1841210,https://d1cfu8v5n1wsm.cloudfront.net/toctoc/fotos/20211007/1841210/s_wm_procasa_propiedades_76105406_1.jpg,venta
0,1088070,-70.6689,-33.407,Independencia,Vivaceta/Hipodromo Chile  / Independencia,252.0,252.0,2,2,5930.0,5930.0,178913021.9,0.0,5930.0,26-08-2021 0:00:00,https://www.toctoc.com/propiedades/compracorredorasr/oficina/independencia/vivaceta-hipodromo-chile-independencia/1088070,https://d1cfu8v5n1wsm.cloudfront.net/toctoc/fotos/20180926/1088070/s_wm_procasa_propiedades_76265833_1.jpg,venta
0,1804365,-70.7754,-33.4309,Pudahuel,Blvd Aeropuerto// Núcleo Empresarial ENEA // Rio Refugio,3128.0,3128.0,4,4,54000.0,54000.0,1629224820.0,0.0,54000.0,22-08-2021 0:00:00,https://www.toctoc.com/propiedades/compracorredorasr/oficina/pudahuel/blvd-aeropuerto-nucleo-empresarial-enea-rio-refugio/1804365,https://d1cfu8v5n1wsm.cloudfront.net/toctoc/fotos/20210822/1804365/s_wm_nexxos_506281030506282258633_1.jpg,venta
0,1522670,-70.6532,-33.5049,San Miguel,CARLOS WALKER MARTINEZ,334.0,334.0,2,2,10400.0,10400.0,313776632.0,0.0,10400.0,19-08-2021 0:00:00,https://www.toctoc.com/propiedades/compracorredorasr/oficina/san-miguel/carlos-walker-martinez/1522670,https://d1cfu8v5n1wsm.cloudfront.net/toctoc/fotos/20200723/1522670/s_wm_century21hr_1474a.jpg,venta
0,1827523,-73.2392,-39.8436,Valdivia,Villa el Bosque,260.0,260.0,0,0,6000.0,6000.0,181024980.0,0.0,6000.0,17-09-2021 0:00:00,https://www.toctoc.com/propiedades/compracorredorasr/oficina/valdivia/villa-el-bosque/1827523,https://d1cfu8v5n1wsm.cloudfront.net/toctoc/fotos/20210917/1827523/s_wm_habiter_340641030340641925508_1.jpg,venta
0,1393783,-70.5446,-33.4064,Las Condes,Camino El Alba - Metro Los Dominicos,160.52,160.52,2,2,108.0,108.0,3258449.64,0.0,108.0,07-01-2020 0:00:00,https://www.toctoc.com/propiedades/compracorredorasr/oficina/las-condes/camino-el-alba-metro-los-dominicos/1393783,https://d1cfu8v5n1wsm.cloudfront.net/toctoc/fotos/20200107/1393783/s_wm_viv_64896-103064896-2140916_1.jpg,venta
0,1393780,-70.5446,-33.4064,Las Condes,Camino El Alba - Metro Los Dominicos,136.07,136.07,2,2,108.0,108.0,3258449.64,0.0,108.0,07-01-2020 0:00:00,https://www.toctoc.com/propiedades/compracorredorasr/oficina/las-condes/camino-el-alba-metro-los-dominicos/1393780,https://d1cfu8v5n1wsm.cloudfront.net/toctoc/fotos/20200107/1393780/s_wm_viv_64883-103064883-2140781_1.jpg,venta
0,1529916,-70.5438,-33.4049,Las Condes,Los Domínicos/Camino El Alba,36.0,36.0,1,1,3600.0,3600.0,108614988.0,0.0,3600.0,18-09-2021 0:00:00,https://www.toctoc.com/propiedades/compracorredorasr/oficina/las-condes/los-dominicos-camino-el-alba/1529916,https://d1cfu8v5n1wsm.cloudfront.net/toctoc/fotos/20200804/1529916/s_wm_procasa_propiedades_76538826_1.jpg,venta
0,1369048,-70.5484,-33.4017,Las Condes,Estadio Israelita / Boccacio,430.0,430.0,3,3,17320.0,17320.0,522558775.6,0.0,17320.0,02-12-2019 0:00:00,https://www.toctoc.com/propiedades/compracorredorasr/oficina/las-condes/estadio-israelita-boccacio/1369048,https://d1cfu8v5n1wsm.cloudfront.net/toctoc/fotos/20191202/1369048/s_wm_realtycorp_44006-103044006-303258_1.jpg,venta
0,1779938,-70.6133,-33.4177,Providencia,Padre Letelier,709.0,709.0,0,0,38000.0,38000.0,1146491540.0,0.0,38000.0,21-07-2021 0:00:00,https://www.toctoc.com/propiedades/compracorredorasr/oficina/providencia/padre-letelier/1779938,https://d1cfu8v5n1wsm.cloudfront.net/toctoc/fotos/20210721/1779938/s_wm_remax1028018_l_0d1daae6cdbb4257b82ba0a249c040de.jpg,venta
0,1327223,-70.54725269,-33.38748157,Vitacura,Kennedy Frente al Alto Las Condes,311.0,311.0,4,4,39800.0,39800.0,1200799034.0,0.0,39800.0,02-10-2019 0:00:00,https://www.toctoc.com/propiedades/compracorredorasr/oficina/vitacura/kennedy-frente-al-alto-las-condes/1327223,https://d1cfu8v5n1wsm.cloudfront.net/toctoc/fotos/20191002/1327223/s_wm_hob_70951-103070951-2167078_1.jpg,venta
0,1812684,-70.5323,-33.3826,Las Condes,Clínica Las Condes-Estoril-Kennedy-Tabancura,140.0,140.0,2,2,17000.0,17000.0,512904110.0,0.0,17000.0,01-09-2021 0:00:00,https://www.toctoc.com/propiedades/compracorredorasr/oficina/las-condes/clinica-las-condes-estoril-kennedy-tabancura/1812684,https://d1cfu8v5n1wsm.cloudfront.net/toctoc/fotos/20210901/1812684/s_wm_fap_377696103377696899086_1.jpg,venta
0,1192919,-70.5328,-33.3851,Las Condes,ESTORIL,22.0,22.0,1,1,3200.0,3200.0,96546656.0,0.0,3200.0,13-03-2019 0:00:00,https://www.toctoc.com/propiedades/compracorredorasr/oficina/las-condes/estoril/1192919,https://d1cfu8v5n1wsm.cloudfront.net/toctoc/fotos/20190313/1192919/s_wm_agp_62212-103062212-2101794_1.jpg,venta
0,639727,-70.5338,-33.3841,Las Condes,ESTORIL / LAS CONDES,0.0,0.0,2,2,5500.0,5500.0,165939565.0,0.0,5500.0,14-12-2018 0:00:00,https://www.toctoc.com/propiedades/compracorredorasr/oficina/las-condes/estoril-las-condes/639727,https://d1cfu8v5n1wsm.cloudfront.net/toctoc/fotos/20150101/639727/s_wm_alaluf_propiedades_18167_54a2967e05ba0.jpg,venta
0,1322037,-70.5369,-33.3858,Las Condes,Estoril,22.0,22.0,1,1,2680.0,2680.0,80857824.4,0.0,2680.0,25-09-2019 0:00:00,https://www.toctoc.com/propiedades/compracorredorasr/oficina/las-condes/estoril/1322037,https://d1cfu8v5n1wsm.cloudfront.net/toctoc/fotos/20190925/1322037/s_wm_agp_70852-103070852-2165238_1.jpg,venta
0,1587586,-70.5388,-33.3872,Las Condes,Av. Las Condes/Estoril,0.0,0.0,1,1,2900.0,2900.0,87495407.0,0.0,2900.0,18-09-2021 0:00:00,https://www.toctoc.com/propiedades/compracorredorasr/oficina/las-condes/av-las-condes-estoril/1587586,https://d1cfu8v5n1wsm.cloudfront.net/toctoc/fotos/20201016/1587586/s_wm_procasa_propiedades_76538826_1.jpg,venta
0,1814892,-70.5318,-33.383,Las Condes,LO FONTECILLA / CLINICA LAS CONDES,53.3,53.3,2,2,6380.0,6380.0,192489895.4,0.0,6380.0,02-09-2021 0:00:00,https://www.toctoc.com/propiedades/compracorredorasr/oficina/las-condes/lo-fontecilla-clinica-las-condes/1814892,https://d1cfu8v5n1wsm.cloudfront.net/toctoc/fotos/20210902/1814892/s_wm_prourbe_534761030534762064659_1.jpg,venta
0,1062553,-72.5964,-38.7396,Temuco,Antonio Varas 383,232.0,232.0,2,2,7000.0,7000.0,211195810.0,0.0,7000.0,10-01-2019 0:00:00,https://www.toctoc.com/propiedades/compracorredorasr/oficina/temuco/antonio-varas-383/1062553,https://d1cfu8v5n1wsm.cloudfront.net/toctoc/fotos/20180807/1062553/s_wm_habiter_29242-103029242-1865304_1.jpg,venta
0,1760398,-70.5526,-33.3876,Vitacura,Hualtatas/ Las Tranqueras,500.0,500.0,0,0,27500.0,27500.0,829697825.0,0.0,27500.0,17-06-2021 0:00:00,https://www.toctoc.com/propiedades/compracorredorasr/oficina/vitacura/hualtatas-las-tranqueras/1760398,https://d1cfu8v5n1wsm.cloudfront.net/toctoc/fotos/20210617/1760398/s_wm_berrioszegers_propiedades_37504103037504955968_1.jpg,venta
0,1745308,-70.5575,-33.4363,La Reina,Francisco Bilbao / Country club.,514.0,514.0,4,4,13900.0,13900.0,419374537.0,0.0,13900.0,27-05-2021 0:00:00,https://www.toctoc.com/propiedades/compracorredorasr/oficina/la-reina/francisco-bilbao-country-club/1745308,https://d1cfu8v5n1wsm.cloudfront.net/toctoc/fotos/20210527/1745308/s_wm_berrioszegers_propiedades_36842-103036842-941507_1.jpg,venta
0,1831572,-70.7337,-34.1837,Rancagua,Av.Ramón Freire,21.59,21.59,1,1,2049.0,2049.0,61820030.67,0.0,2049.0,23-09-2021 0:00:00,https://www.toctoc.com/propiedades/compracorredorasr/oficina/rancagua/av-ramon-freire/1831572,https://d1cfu8v5n1wsm.cloudfront.net/toctoc/fotos/20210923/1831572/s_wm_century21 commercial group_614c93a2e9ba9.jpg,venta
0,1403061,-70.5896,-33.6317,Puente Alto,Ejercito Libertador / Primavera,300.0,300.0,0,0,206000000.0,206000000.0,6827.79,6827.79,6827.79,18-01-2020 0:00:00,https://www.toctoc.com/propiedades/compracorredorasr/oficina/puente-alto/ejercito-libertador-primavera/1403061,https://d1cfu8v5n1wsm.cloudfront.net/toctoc/fotos/20200118/1403061/s_wm_realtycorp_44192-103044192-306647_1.png,venta
0,1824065,-70.5562,-33.4564,La Reina,Av. Tobalaba,302.0,302.0,1,1,7600.0,7600.0,229298308.0,0.0,7600.0,11-09-2021 0:00:00,https://www.toctoc.com/propiedades/compracorredorasr/oficina/la-reina/av-tobalaba/1824065,https://d1cfu8v5n1wsm.cloudfront.net/toctoc/fotos/20210911/1824065/s_wm_century21oriente_60aff99995ffa.jpg,venta
0,1831571,-73.0475,-36.8298,Concepción,Aníbal Pinto,825.0,825.0,9,9,45000.0,45000.0,1357687350.0,0.0,45000.0,23-09-2021 0:00:00,https://www.toctoc.com/propiedades/compracorredorasr/oficina/concepcion/anibal-pinto/1831571,https://d1cfu8v5n1wsm.cloudfront.net/toctoc/fotos/20210923/1831571/s_wm_century21 commercial group_614ce95b90d76.jpg,venta
0,1750745,-71.6268,-33.0388,Valparaíso,Av. Errazuriz,725.0,725.0,0,0,51000.0,51000.0,1538712330.0,0.0,51000.0,04-06-2021 0:00:00,https://www.toctoc.com/propiedades/compracorredorasr/oficina/valparaiso/av-errazuriz/1750745,https://d1cfu8v5n1wsm.cloudfront.net/toctoc/fotos/20210604/1750745/s_wm_remax1028057_l_faf2b58a76ea468a858784df7bef6071.jpg,venta
0,1731627,-70.6165,-33.3886,Huechuraba,Ciudad Empresarial,243.0,243.0,5,5,15000.0,15000.0,452562450.0,0.0,15000.0,06-05-2021 0:00:00,https://www.toctoc.com/propiedades/compracorredorasr/oficina/huechuraba/ciudad-empresarial/1731627,https://d1cfu8v5n1wsm.cloudfront.net/toctoc/fotos/20210506/1731627/s_wm_hob_78258-103078258-2295030_1.jpg,venta
0,993583,-70.6182,-33.3875,Huechuraba,CIUDAD EMPRESARIAL,120.0,120.0,1,1,9500.0,9500.0,286622885.0,0.0,9500.0,06-02-2019 0:00:00,https://www.toctoc.com/propiedades/compracorredorasr/oficina/huechuraba/ciudad-empresarial/993583,https://d1cfu8v5n1wsm.cloudfront.net/toctoc/fotos/20180422/993583/s_wm_vie_54146-103054146-2023567_1.jpg,venta
0,729734,-70.6158,-33.3879,Huechuraba,Ciudad Empresarial / Av. Del Valle,233.43,233.43,2,2,8170.0,8170.0,246495681.1,0.0,8170.0,06-02-2019 0:00:00,https://www.toctoc.com/propiedades/compracorredorasr/oficina/huechuraba/ciudad-empresarial-av-del-valle/729734,https://d1cfu8v5n1wsm.cloudfront.net/toctoc/fotos/20170104/729734/s_wm_hob_34014-103034014-1953590_1.jpg,venta
0,1796447,-71.2499,-29.9019,La Serena,"Avda. Balmaceda 391, Edificio Italia, Centro de La Serena.",2000.0,2000.0,1,1,28000000.0,28000000.0,928.05,928.05,928.05,12-08-2021 0:00:00,https://www.toctoc.com/propiedades/compracorredorasr/oficina/la-serena/avda-balmaceda-391-edificio-italia-centro-de-la-serena/1796447,https://d1cfu8v5n1wsm.cloudfront.net/toctoc/fotos/20210812/1796447/s_wm_century21fontana_61148f86e7638.jpg,venta
0,888732,-70.5202,-33.3575,Lo Barnechea,LA DEHESA,48.0,48.0,1,1,5200.0,5200.0,156888316.0,0.0,5200.0,06-02-2019 0:00:00,https://www.toctoc.com/propiedades/compracorredorasr/oficina/lo-barnechea/la-dehesa/888732,https://d1cfu8v5n1wsm.cloudfront.net/toctoc/fotos/20171022/888732/s_wm_vld_51911-103051911-1982798_1.jpg,venta
0,1253193,-70.5794,-33.4611,Ñuñoa,Ramon Cruz Montt/Eduardo Castillo Velasco,0.0,0.0,9,9,25000.0,25000.0,754270750.0,0.0,25000.0,18-09-2021 0:00:00,https://www.toctoc.com/propiedades/compracorredorasr/oficina/nunoa/ramon-cruz-montt-eduardo-castillo-velasco/1253193,https://d1cfu8v5n1wsm.cloudfront.net/toctoc/fotos/20190618/1253193/s_wm_procasa_propiedades_76538826_1.png,venta
0,1833532,-70.6819,-33.2846,Colina,Cruce Av. Chicureo con caletera San Martin,20.0,20.0,1,1,2500.0,2500.0,75427075.0,0.0,2500.0,26-09-2021 0:00:00,https://www.toctoc.com/propiedades/compracorredorasr/oficina/colina/cruce-av-chicureo-con-caletera-san-martin/1833532,https://d1cfu8v5n1wsm.cloudfront.net/toctoc/fotos/20210926/1833532/s_wm_fph_378116103378116909243_1.jpg,venta
0,1828698,-70.6236,-33.4314,Providencia,Rafael Cañas,134.0,134.0,0,0,7297.0,7297.0,220156546.51,0.0,7297.0,21-09-2021 0:00:00,https://www.toctoc.com/propiedades/compracorredorasr/oficina/providencia/rafael-canas/1828698,https://d1cfu8v5n1wsm.cloudfront.net/toctoc/fotos/20210921/1828698/s_wm_remax1028018_l_3eac99166790435c853b580359cbca01.jpg,venta
0,1735173,-71.6669,-35.4272,Talca,1 Sur/ 1 Poniente,250.0,250.0,5,5,293000000.0,293000000.0,9711.37,9711.37,9711.37,12-05-2021 0:00:00,https://www.toctoc.com/propiedades/compracorredorasr/oficina/talca/1-sur-1-poniente/1735173,https://d1cfu8v5n1wsm.cloudfront.net/toctoc/fotos/20210512/1735173/s_wm_fpp_375841-103375841-856774_1.jpg,venta
0,1657248,-70.7416,-33.7302,Buin,Sargento Aldea,361.0,361.0,6,6,17673.0,17673.0,533209078.59,0.0,17673.0,23-01-2021 0:00:00,https://www.toctoc.com/propiedades/compracorredorasr/oficina/buin/sargento-aldea/1657248,https://d1cfu8v5n1wsm.cloudfront.net/toctoc/fotos/20210123/1657248/s_wm_century21lert_5df15359849ca.jpg,venta
0,1506099,-72.3552,-37.4693,Los Ángeles,Ercilla,180.0,180.0,4,4,150000000.0,150000000.0,4971.69,4971.69,4971.69,27-06-2020 0:00:00,https://www.toctoc.com/propiedades/compracorredorasr/oficina/los-angeles/ercilla/1506099,https://d1cfu8v5n1wsm.cloudfront.net/toctoc/fotos/20200627/1506099/s_wm_habiter_33029-103033029-1900363_1.jpg,venta
0,1669326,-73.0592,-36.802,Concepción,Barcelona,1050.0,1050.0,9,9,21430.0,21430.0,646560886.9,0.0,21430.0,10-02-2021 0:00:00,https://www.toctoc.com/propiedades/compracorredorasr/oficina/concepcion/barcelona/1669326,https://d1cfu8v5n1wsm.cloudfront.net/toctoc/fotos/20210210/1669326/s_wm_century21 commercial group_6022e6835d6f2.jpg,venta
0,1207932,-70.7804,-33.4271,Pudahuel,Parque Empresarial Enea,126.0,126.0,0,0,5800.0,5800.0,174990814.0,0.0,5800.0,05-04-2019 0:00:00,https://www.toctoc.com/propiedades/compracorredorasr/oficina/pudahuel/parque-empresarial-enea/1207932,https://d1cfu8v5n1wsm.cloudfront.net/toctoc/fotos/20190405/1207932/s_wm_hob_62547-103062547-2108877_1.jpg,venta
0,1145438,-70.6163,-33.3929,Huechuraba,Ciudad Empresarial,121.0,121.0,2,2,6200.0,6200.0,187059146.0,0.0,6200.0,06-06-2019 0:00:00,https://www.toctoc.com/propiedades/compracorredorasr/oficina/huechuraba/ciudad-empresarial/1145438,https://d1cfu8v5n1wsm.cloudfront.net/toctoc/fotos/20181222/1145438/s_wm_viv_60409-103060409-2084963_1.jpg,venta
0,1839112,-70.6172,-33.3944,Huechuraba,Avda Del Valle Sur,207.0,207.0,2,2,14900.0,14900.0,449545367.0,0.0,14900.0,04-10-2021 0:00:00,https://www.toctoc.com/propiedades/compracorredorasr/oficina/huechuraba/avda-del-valle-sur/1839112,https://d1cfu8v5n1wsm.cloudfront.net/toctoc/fotos/20211004/1839112/s_wm_realtycorp_45937103045937341244_1.jpg,venta
0,1666699,-70.7331,-34.1739,Rancagua,Gamero/El Roble,1780.0,1780.0,3,3,52726.0,52726.0,1590787182.58,0.0,52726.0,05-02-2021 0:00:00,https://www.toctoc.com/propiedades/compracorredorasr/oficina/rancagua/gamero-el-roble/1666699,https://d1cfu8v5n1wsm.cloudfront.net/toctoc/fotos/20210205/1666699/s_wm_procasa_propiedades_76545471_1.jpg,venta
0,1705429,-71.5183,-32.9237,Concón,San Agustin (LF)/Calle 6 (LF),0.0,0.0,1,1,2650.0,2650.0,79952699.5,0.0,2650.0,30-03-2021 0:00:00,https://www.toctoc.com/propiedades/compracorredorasr/oficina/concon/san-agustin-lf-calle-6-lf/1705429,https://d1cfu8v5n1wsm.cloudfront.net/toctoc/fotos/20210330/1705429/s_wm_procasa_propiedades_76545471_1.jpg,venta
0,1740967,-70.5974,-33.3959,Vitacura,Espoz,111.0,111.0,0,0,11000.0,11000.0,331879130.0,0.0,11000.0,22-05-2021 0:00:00,https://www.toctoc.com/propiedades/compracorredorasr/oficina/vitacura/espoz/1740967,https://d1cfu8v5n1wsm.cloudfront.net/toctoc/fotos/20210522/1740967/s_wm_pyglarrain_37471-103037471-1977503_1.jpg,venta
0,1749381,-70.5966,-33.4187,Las Condes,AUGUSTO LEGUIA SUR / NAPOLEON BARRIO EL GOLF,289.0,289.0,5,5,24720.0,24720.0,745822917.6,0.0,24720.0,02-06-2021 0:00:00,https://www.toctoc.com/propiedades/compracorredorasr/oficina/las-condes/augusto-leguia-sur-napoleon-barrio-el-golf/1749381,https://d1cfu8v5n1wsm.cloudfront.net/toctoc/fotos/20210602/1749381/s_wm_lyb_785351030785352302061_1.jpg,venta
0,1673093,-70.5961,-33.4177,Las Condes,Napoleón,170.0,170.0,4,4,15500.0,15500.0,467647865.0,0.0,15500.0,16-02-2021 0:00:00,https://www.toctoc.com/propiedades/compracorredorasr/oficina/las-condes/napoleon/1673093,https://d1cfu8v5n1wsm.cloudfront.net/toctoc/fotos/20210216/1673093/s_wm_century21andes_602ac3406b5a8.jpg,venta
0,1761199,-70.5942,-33.416,Las Condes,El Golf,418.0,418.0,0,0,43890.0,43890.0,1324197728.7,0.0,43890.0,18-06-2021 0:00:00,https://www.toctoc.com/propiedades/compracorredorasr/oficina/las-condes/el-golf/1761199,https://d1cfu8v5n1wsm.cloudfront.net/toctoc/fotos/20210618/1761199/s_wm_pyglarrain_374981030374981978014_1.jpg,venta
0,1637932,-70.5985,-33.4187,Las Condes,Vecinal,125.0,125.0,1,1,10000.0,10000.0,301708300.0,0.0,10000.0,23-12-2020 0:00:00,https://www.toctoc.com/propiedades/compracorredorasr/oficina/las-condes/vecinal/1637932,https://d1cfu8v5n1wsm.cloudfront.net/toctoc/fotos/20201223/1637932/s_wm_century21andes_5fdb87184a934.jpg,venta
0,1807260,-70.5984,-33.4165,Las Condes,Carmencita,0.0,0.0,0,0,27000.0,27000.0,814612410.0,0.0,27000.0,26-08-2021 0:00:00,https://www.toctoc.com/propiedades/compracorredorasr/oficina/las-condes/carmencita/1807260,https://d1cfu8v5n1wsm.cloudfront.net/toctoc/fotos/20210826/1807260/s_wm_remax1028046_l_d63543418f334acbbfc8177a70fff5e3.jpg,venta
0,1704396,-70.5935,-33.4159,Las Condes,Apoquindo / Magdalena,219.0,219.0,3,3,24000.0,24000.0,724099920.0,0.0,24000.0,06-05-2021 0:00:00,https://www.toctoc.com/propiedades/compracorredorasr/oficina/las-condes/apoquindo-magdalena/1704396,https://d1cfu8v5n1wsm.cloudfront.net/toctoc/fotos/20210328/1704396/s_wm_grup0249_4923-103004923-1847630_1.jpg,venta
0,1600986,-70.5981,-33.419,Las Condes,Metro Tobalaba,35.0,35.0,1,1,4749.0,4749.0,143281271.67,0.0,4749.0,31-10-2020 0:00:00,https://www.toctoc.com/propiedades/compracorredorasr/oficina/las-condes/metro-tobalaba/1600986,https://d1cfu8v5n1wsm.cloudfront.net/toctoc/fotos/20201031/1600986/s_wm_feg_372496-103372496-782909_1.jpg,venta
0,1792897,-70.5967,-33.4153,Las Condes,Reyes Lavalle Plaza Peru,0.0,0.0,0,0,8200.0,8200.0,247400806.0,0.0,8200.0,06-08-2021 0:00:00,https://www.toctoc.com/propiedades/compracorredorasr/oficina/las-condes/reyes-lavalle-plaza-peru/1792897,https://d1cfu8v5n1wsm.cloudfront.net/toctoc/fotos/20210806/1792897/s_wm_remax1028064_l_97613742f0354be1be11f283ab087f82.jpg,venta
0,1797493,-70.5971,-33.4143,Las Condes,El Golf,0.0,0.0,4,4,23000.0,23000.0,693929090.0,0.0,23000.0,07-09-2021 0:00:00,https://www.toctoc.com/propiedades/compracorredorasr/oficina/las-condes/el-golf/1797493,https://d1cfu8v5n1wsm.cloudfront.net/toctoc/fotos/20210813/1797493/s_wm_propertypartners_2261949_37614421_eb-hr1949.jpg,venta
0,1776023,-70.5923,-33.4155,Las Condes,Magdalena,213.0,213.0,0,0,22321.0,22321.0,673443096.43,0.0,22321.0,13-07-2021 0:00:00,https://www.toctoc.com/propiedades/compracorredorasr/oficina/las-condes/magdalena/1776023,https://d1cfu8v5n1wsm.cloudfront.net/toctoc/fotos/20210713/1776023/s_wm_pyglarrain_375121030375121978524_1.jpg,venta
0,1753289,-70.5923,-33.4158,Las Condes,Isidora Goyenechea,386.0,386.0,6,6,45960.0,45960.0,1386651346.8,0.0,45960.0,08-06-2021 0:00:00,https://www.toctoc.com/propiedades/compracorredorasr/oficina/las-condes/isidora-goyenechea/1753289,https://d1cfu8v5n1wsm.cloudfront.net/toctoc/fotos/20210608/1753289/s_wm_pyglarrain_374911030374911977880_1.jpg,venta
0,1788871,-70.5955,-33.4177,Las Condes,METRO EL GOLF,170.0,170.0,3,3,13000.0,13000.0,392220790.0,0.0,13000.0,01-08-2021 0:00:00,https://www.toctoc.com/propiedades/compracorredorasr/oficina/las-condes/metro-el-golf/1788871,https://d1cfu8v5n1wsm.cloudfront.net/toctoc/fotos/20210801/1788871/s_wm_cys_758141030758142245266_1.jpg,venta
0,1608709,-70.5937,-33.4143,Las Condes,El Golf,134.0,134.0,4,4,13100.0,13100.0,395237873.0,0.0,13100.0,16-07-2021 0:00:00,https://www.toctoc.com/propiedades/compracorredorasr/oficina/las-condes/el-golf/1608709,https://d1cfu8v5n1wsm.cloudfront.net/toctoc/fotos/20201111/1608709/s_wm_benaventemozopropiedades_5568-103005568-1810343_1.jpg,venta
0,1829970,-70.5987,-33.4186,Las Condes,Vecinal / Napoleón / local a la calle y segundo piso oficina,256.0,256.0,5,5,25000.0,25000.0,754270750.0,0.0,25000.0,22-09-2021 0:00:00,https://www.toctoc.com/propiedades/compracorredorasr/oficina/las-condes/vecinal-napoleon-local-a-la-calle-y-segundo-piso-oficina/1829970,https://d1cfu8v5n1wsm.cloudfront.net/toctoc/fotos/20210922/1829970/s_wm_echa1c8e_66741030066741816182_1.jpg,venta
0,1746238,-70.595,-33.4147,Las Condes,El Golf,117.0,117.0,6,6,38000.0,38000.0,1146491540.0,0.0,38000.0,28-05-2021 0:00:00,https://www.toctoc.com/propiedades/compracorredorasr/oficina/las-condes/el-golf/1746238,https://d1cfu8v5n1wsm.cloudfront.net/toctoc/fotos/20210527/1746238/s_wm_maudierpropiedades_5457-103005457-156827_1.jpg,venta
0,1708815,-70.5983,-33.4177,Las Condes,APOQUINDO/ ENRIQUE FOSTER,170.0,170.0,3,3,13990.0,13990.0,422089911.7,0.0,13990.0,10-08-2021 0:00:00,https://www.toctoc.com/propiedades/compracorredorasr/oficina/las-condes/apoquindo-enrique-foster/1708815,https://d1cfu8v5n1wsm.cloudfront.net/toctoc/fotos/20210405/1708815/s_wm_amp_780511030780512289839_1.jpg,venta
0,1670226,-70.5988,-33.417,Las Condes,apoquindo,231.0,231.0,4,4,21900.0,21900.0,660741177.0,0.0,21900.0,16-03-2021 0:00:00,https://www.toctoc.com/propiedades/compracorredorasr/oficina/las-condes/apoquindo/1670226,https://d1cfu8v5n1wsm.cloudfront.net/toctoc/fotos/20210211/1670226/s_wm_century21cumbres_5feb742f9e8e3.jpg,venta
0,1791594,-70.5922,-33.4173,Las Condes,HENDAYA NAPOLEON,21.5,21.5,1,1,2700.0,2700.0,81461241.0,0.0,2700.0,04-08-2021 0:00:00,https://www.toctoc.com/propiedades/compracorredorasr/oficina/las-condes/hendaya-napoleon/1791594,https://d1cfu8v5n1wsm.cloudfront.net/toctoc/fotos/20210804/1791594/s_wm_urz_359631030359632311419_1.jpg,venta
0,1813536,-70.5942,-33.4181,Las Condes,Callao,585.0,585.0,4,4,36000.0,36000.0,1086149880.0,0.0,36000.0,01-09-2021 0:00:00,https://www.toctoc.com/propiedades/compracorredorasr/oficina/las-condes/callao/1813536,https://d1cfu8v5n1wsm.cloudfront.net/toctoc/fotos/20210901/1813536/s_wm_century21andes_608c3d1ef0858.jpg,venta
0,1377766,-70.5984,-33.4166,Las Condes,Carmencita,329.0,329.0,3,3,35900.0,35900.0,1083132797.0,0.0,35900.0,05-11-2020 0:00:00,https://www.toctoc.com/propiedades/compracorredorasr/oficina/las-condes/carmencita/1377766,https://d1cfu8v5n1wsm.cloudfront.net/toctoc/fotos/20191211/1377766/s_wm_century21invernor_5efe7ad031bda.jpg,venta
0,1785599,-70.5989,-33.4171,Las Condes,Apoquindo - El Bosque,333.0,333.0,5,5,110.0,110.0,3318791.3,0.0,110.0,28-07-2021 0:00:00,https://www.toctoc.com/propiedades/compracorredorasr/oficina/las-condes/apoquindo-el-bosque/1785599,https://d1cfu8v5n1wsm.cloudfront.net/toctoc/fotos/20210728/1785599/s_wm_realtycorp_45548103045548332490_1.jpg,venta
0,1829965,-70.5987,-33.4186,Las Condes,Vecinal / Napoleón / local a la calle y segundo piso oficina,256.0,256.0,5,5,25000.0,25000.0,754270750.0,0.0,25000.0,22-09-2021 0:00:00,https://www.toctoc.com/propiedades/compracorredorasr/oficina/las-condes/vecinal-napoleon-local-a-la-calle-y-segundo-piso-oficina/1829965,https://d1cfu8v5n1wsm.cloudfront.net/toctoc/fotos/20210922/1829965/s_wm_echa1c8e_53061030053061815271_1.jpg,venta
0,1792896,-70.5965,-33.4153,Las Condes,Reyes Lavalle,0.0,0.0,0,0,9900.0,9900.0,298691217.0,0.0,9900.0,06-08-2021 0:00:00,https://www.toctoc.com/propiedades/compracorredorasr/oficina/las-condes/reyes-lavalle/1792896,https://d1cfu8v5n1wsm.cloudfront.net/toctoc/fotos/20210806/1792896/s_wm_remax1028064_l_05cfff93eea4403e8b0330b8d86d219c.jpg,venta
0,1773831,-70.599,-33.4157,Las Condes,Barrio El Golf / Carmencita,231.0,231.0,4,4,20790.0,20790.0,627251555.7,0.0,20790.0,24-09-2021 0:00:00,https://www.toctoc.com/propiedades/compracorredorasr/oficina/las-condes/barrio-el-golf-carmencita/1773831,https://d1cfu8v5n1wsm.cloudfront.net/toctoc/fotos/20210709/1773831/s_wm_byas_propiedades_2727210721625853610.jpg,venta
0,1511259,-70.5705,-33.3941,Vitacura,Clínica Alemana,524.0,524.0,5,5,28490.0,28490.0,859566946.7,0.0,28490.0,06-07-2020 0:00:00,https://www.toctoc.com/propiedades/compracorredorasr/oficina/vitacura/clinica-alemana/1511259,https://d1cfu8v5n1wsm.cloudfront.net/toctoc/fotos/20200706/1511259/s_wm_catabrochet_7174-103007174-1841075_1.jpg,venta
0,1804272,-70.5714,-33.3941,Vitacura,Clinica Alemana,627.0,627.0,4,4,28000.0,28000.0,844783240.0,0.0,28000.0,22-08-2021 0:00:00,https://www.toctoc.com/propiedades/compracorredorasr/oficina/vitacura/clinica-alemana/1804272,https://d1cfu8v5n1wsm.cloudfront.net/toctoc/fotos/20210822/1804272/s_wm_feg_377552103377552896126_1.jpg,venta
0,1339397,-70.5755,-33.3988,Vitacura,Parque Arauco,855.0,855.0,8,8,80000.0,80000.0,2413666400.0,0.0,80000.0,18-10-2019 0:00:00,https://www.toctoc.com/propiedades/compracorredorasr/oficina/vitacura/parque-arauco/1339397,https://d1cfu8v5n1wsm.cloudfront.net/toctoc/fotos/20191018/1339397/s_wm_pyglarrain_37115-103037115-1970266_1.jpg,venta
0,1843111,-70.5705,-33.3941,Vitacura,Clínica Alemana,524.0,524.0,5,5,28490.0,28490.0,859566946.7,0.0,28490.0,09-10-2021 0:00:00,https://www.toctoc.com/propiedades/compracorredorasr/oficina/vitacura/clinica-alemana/1843111,https://d1cfu8v5n1wsm.cloudfront.net/toctoc/fotos/20211009/1843111/s_wm_catabrochet_85101030085101862930_1.jpg,venta
0,1414052,-70.574,-33.3983,Vitacura,Local Kennedy / Parque Arauco,42.0,42.0,1,1,5200.0,5200.0,156888316.0,0.0,5200.0,12-01-2021 0:00:00,https://www.toctoc.com/propiedades/compracorredorasr/oficina/vitacura/local-kennedy-parque-arauco/1414052,https://d1cfu8v5n1wsm.cloudfront.net/toctoc/fotos/20200204/1414052/s_wm_romopropiedades_134358103134358158725_1.jpg,venta
0,1600987,-70.5741,-33.3912,Vitacura,Vitacura / Manquehue,30.0,30.0,1,1,3800.0,3800.0,114649154.0,0.0,3800.0,31-10-2020 0:00:00,https://www.toctoc.com/propiedades/compracorredorasr/oficina/vitacura/vitacura-manquehue/1600987,https://d1cfu8v5n1wsm.cloudfront.net/toctoc/fotos/20201031/1600987/s_wm_feg_372499-103372499-782955_1.jpg,venta
0,1655984,-70.574,-33.3983,Vitacura,Kennedy // Luis Carrera (150),0.0,0.0,1,1,5000.0,5000.0,150854150.0,0.0,5000.0,21-01-2021 0:00:00,https://www.toctoc.com/propiedades/compracorredorasr/oficina/vitacura/kennedy-luis-carrera-150/1655984,https://d1cfu8v5n1wsm.cloudfront.net/toctoc/fotos/20210120/1655984/s_wm_makler_130042_g_img_6069_20190120103007_20200626112104.jpg,venta
0,729788,-70.5757,-33.3992,Vitacura,Kennedy- Luis Carrera,40.0,40.0,2,2,4400.0,4400.0,132751652.0,0.0,4400.0,22-07-2021 0:00:00,https://www.toctoc.com/propiedades/compracorredorasr/oficina/vitacura/kennedy-luis-carrera/729788,https://d1cfu8v5n1wsm.cloudfront.net/toctoc/fotos/20170105/729788/s_wm_hob_386911030386911879116_1.jpg,venta
0,1174689,-70.573,-33.3974,Vitacura,Manquehue Norte / Kennedy,40.0,40.0,1,1,5200.0,5200.0,156888316.0,0.0,5200.0,09-02-2019 0:00:00,https://www.toctoc.com/propiedades/compracorredorasr/oficina/vitacura/manquehue-norte-kennedy/1174689,https://d1cfu8v5n1wsm.cloudfront.net/toctoc/fotos/20190209/1174689/s_wm_aag_60877-103060877-2093663_1.jpg,venta
0,1782062,-70.5701,-33.3938,Vitacura,Las Hualtatas Rafael Maluenda,627.0,627.0,0,0,27000.0,27000.0,814612410.0,0.0,27000.0,23-07-2021 0:00:00,https://www.toctoc.com/propiedades/compracorredorasr/oficina/vitacura/las-hualtatas-rafael-maluenda/1782062,https://d1cfu8v5n1wsm.cloudfront.net/toctoc/fotos/20210723/1782062/s_wm_fpv_377028103377028883230_1.jpg,venta
0,1569114,-70.5728,-33.3981,Vitacura,Kennedy,81.67,81.67,0,0,10209.0,10209.0,308014003.47,0.0,10209.0,25-09-2020 0:00:00,https://www.toctoc.com/propiedades/compracorredorasr/oficina/vitacura/kennedy/1569114,https://d1cfu8v5n1wsm.cloudfront.net/toctoc/fotos/20200924/1569114/s_wm_feg_143283-103143283-90541_1.jpg,venta
0,1743349,-70.5756,-33.3991,Vitacura,Frente Hotel Marriot,123.0,123.0,2,2,15869.0,15869.0,478780901.27,0.0,15869.0,24-05-2021 0:00:00,https://www.toctoc.com/propiedades/compracorredorasr/oficina/vitacura/frente-hotel-marriot/1743349,https://d1cfu8v5n1wsm.cloudfront.net/toctoc/fotos/20210524/1743349/s_wm_fnc_375981-103375981-859929_1.jpg,venta
0,1270291,-70.5737,-33.4518,Ñuñoa,Metro Plaza Egaña,384.0,384.0,7,7,19450.0,19450.0,586822643.5,0.0,19450.0,13-07-2019 0:00:00,https://www.toctoc.com/propiedades/compracorredorasr/oficina/nunoa/metro-plaza-egana/1270291,https://d1cfu8v5n1wsm.cloudfront.net/toctoc/fotos/20190713/1270291/s_wm_vivax_propiedades_711164-103711164-181073_1.jpg,venta
0,1643308,-70.576,-33.4545,Ñuñoa,Cauquenes y Francisco Villagra,28.0,28.0,1,1,2235.81,2235.81,67456243.42,0.0,2235.81,04-01-2021 0:00:00,https://www.toctoc.com/propiedades/compracorredorasr/oficina/nunoa/cauquenes-y-francisco-villagra/1643308,https://d1cfu8v5n1wsm.cloudfront.net/toctoc/fotos/20210104/1643308/s_wm_fpn_373661-103373661-808535_1.jpg,venta
0,1788758,-71.5526,-33.0246,Viña del Mar,Edificio Escorial,67.6,67.6,2,2,4119.4,4119.4,124285717.1,0.0,4119.4,01-08-2021 0:00:00,https://www.toctoc.com/propiedades/compracorredorasr/oficina/vina-del-mar/edificio-escorial/1788758,https://d1cfu8v5n1wsm.cloudfront.net/toctoc/fotos/20210801/1788758/s_wm_fvi_377160103377160886576_1.jpg,venta
0,1723223,-71.5519,-33.0251,Viña del Mar,Oficina Comercial Frente a Plaza Vergara,68.0,68.0,2,2,4500.0,4500.0,135768735.0,0.0,4500.0,25-04-2021 0:00:00,https://www.toctoc.com/propiedades/compracorredorasr/oficina/vina-del-mar/oficina-comercial-frente-a-plaza-vergara/1723223,https://d1cfu8v5n1wsm.cloudfront.net/toctoc/fotos/20210425/1723223/s_wm_grupopremium_27041-103027041-2025090_1.jpg,venta
0,1778126,-70.5882,-33.428,Las Condes,Sánchez Fontecilla/ Colon,525.0,525.0,4,4,23400.0,23400.0,705997422.0,0.0,23400.0,25-08-2021 0:00:00,https://www.toctoc.com/propiedades/compracorredorasr/oficina/las-condes/sanchez-fontecilla-colon/1778126,https://d1cfu8v5n1wsm.cloudfront.net/toctoc/fotos/20210717/1778126/s_wm_fic_376883103376883884589_1.jpg,venta
0,1746199,-70.5895,-33.421,Las Condes,El Golf,280.0,280.0,4,4,26000.0,26000.0,784441580.0,0.0,26000.0,28-05-2021 0:00:00,https://www.toctoc.com/propiedades/compracorredorasr/oficina/las-condes/el-golf/1746199,https://d1cfu8v5n1wsm.cloudfront.net/toctoc/fotos/20210527/1746199/s_wm_maudierpropiedades_8598-103008598-201092_1.jpg,venta
0,1577424,-70.633,-33.4405,Providencia,Viña de Mar con Ramón Carnicer,254.0,254.0,7,7,12100.0,12100.0,365067043.0,0.0,12100.0,02-10-2020 0:00:00,https://www.toctoc.com/propiedades/compracorredorasr/oficina/providencia/vina-de-mar-con-ramon-carnicer/1577424,https://d1cfu8v5n1wsm.cloudfront.net/toctoc/fotos/20201002/1577424/s_wm_feg_144354-103144354-112421_1.jpg,venta
0,1795527,-70.633,-33.4412,Providencia,José Arrieta,260.0,260.0,0,0,11454.0,11454.0,345576686.82,0.0,11454.0,11-08-2021 0:00:00,https://www.toctoc.com/propiedades/compracorredorasr/oficina/providencia/jose-arrieta/1795527,https://d1cfu8v5n1wsm.cloudfront.net/toctoc/fotos/20210811/1795527/s_wm_remax1028024_l_1c31c0f891f54ceeb8d7d90d2b895c43.jpg,venta
0,1813362,-70.6376,-33.4475,Santiago,SANTA VICTORIA,148.0,148.0,2,2,320000000.0,320000000.0,10606.27,10606.27,10606.27,01-09-2021 0:00:00,https://www.toctoc.com/propiedades/compracorredorasr/oficina/santiago/santa-victoria/1813362,https://d1cfu8v5n1wsm.cloudfront.net/toctoc/fotos/20210901/1813362/s_wm_century21andes_602c28ad2f64f.jpg,venta
0,1737035,-70.6093,-33.4314,Providencia,AV. Nueva Providencia,50.0,50.0,1,1,4150.0,4150.0,125208944.5,0.0,4150.0,15-05-2021 0:00:00,https://www.toctoc.com/propiedades/compracorredorasr/oficina/providencia/av-nueva-providencia/1737035,https://d1cfu8v5n1wsm.cloudfront.net/toctoc/fotos/20210515/1737035/s_wm_century21universal_609f0c6d52f2d.jpg,venta
0,1417082,-70.6072,-33.4383,Providencia,PLAZA PEDRO DE VALDIVIA,340.0,340.0,4,4,17500.0,17500.0,527989525.0,0.0,17500.0,13-05-2021 0:00:00,https://www.toctoc.com/propiedades/compracorredorasr/oficina/providencia/plaza-pedro-de-valdivia/1417082,https://d1cfu8v5n1wsm.cloudfront.net/toctoc/fotos/20191214/1417082/s_wm_match_inmobiliario_1139771031139771818979_1.jpg,venta
0,1807533,-70.6093,-33.4314,Providencia,Guardia Vieja,57.0,57.0,2,2,5400.0,5400.0,162922482.0,0.0,5400.0,26-08-2021 0:00:00,https://www.toctoc.com/propiedades/compracorredorasr/oficina/providencia/guardia-vieja/1807533,https://d1cfu8v5n1wsm.cloudfront.net/toctoc/fotos/20210826/1807533/s_wm_century21royal_5fa1e2a61c3ef.jpg,venta
0,990246,-70.609,-33.4326,Providencia,Plaza Pedro de Valdivia -- Comercial -,420.0,420.0,5,5,23000.0,23000.0,693929090.0,0.0,23000.0,22-05-2021 0:00:00,https://www.toctoc.com/propiedades/compracorredorasr/oficina/providencia/plaza-pedro-de-valdivia-comercial/990246,https://d1cfu8v5n1wsm.cloudfront.net/toctoc/fotos/20180418/990246/s_wm_viv_54063-103054063-2021741_1.jpg,venta
0,1661111,-72.6049,-38.7349,Temuco,Av Alemania sector Rodriguez,372.75,372.75,3,3,285000000.0,285000000.0,9446.21,9446.21,9446.21,28-01-2021 0:00:00,https://www.toctoc.com/propiedades/compracorredorasr/oficina/temuco/av-alemania-sector-rodriguez/1661111,https://d1cfu8v5n1wsm.cloudfront.net/toctoc/fotos/20210128/1661111/s_wm_habiter_33629-103033629-1913759_1.jpg,venta
0,1784713,-70.5658,-33.4113,Las Condes,Metro Manquehue,80.0,80.0,1,1,5300.0,5300.0,159905399.0,0.0,5300.0,27-07-2021 0:00:00,https://www.toctoc.com/propiedades/compracorredorasr/oficina/las-condes/metro-manquehue/1784713,https://d1cfu8v5n1wsm.cloudfront.net/toctoc/fotos/20210727/1784713/s_wm_hob_790861030790862317136_1.jpg,venta
0,1780734,-70.5658,-33.4113,Las Condes,Metro Manquehue,33.0,33.0,1,1,3769.0,3769.0,113713858.27,0.0,3769.0,02-08-2021 0:00:00,https://www.toctoc.com/propiedades/compracorredorasr/oficina/las-condes/metro-manquehue/1780734,https://d1cfu8v5n1wsm.cloudfront.net/toctoc/fotos/20210722/1780734/s_wm_hob_791741030791742316086_1.jpg,venta
0,1664302,-70.5661,-33.4111,Las Condes,Manquehue Sur,28.0,28.0,1,1,3290.0,3290.0,99262030.7,0.0,3290.0,02-02-2021 0:00:00,https://www.toctoc.com/propiedades/compracorredorasr/oficina/las-condes/manquehue-sur/1664302,https://d1cfu8v5n1wsm.cloudfront.net/toctoc/fotos/20210202/1664302/s_wm_century21oriente_60184de1b88bf.jpg,venta
0,1720847,-70.5691,-33.4107,Las Condes,Rosario Sur,21.0,21.0,0,0,2980.0,2980.0,89909073.4,0.0,2980.0,22-04-2021 0:00:00,https://www.toctoc.com/propiedades/compracorredorasr/oficina/las-condes/rosario-sur/1720847,https://d1cfu8v5n1wsm.cloudfront.net/toctoc/fotos/20210422/1720847/s_wm_remax1028018_l_90624e24e51e4e1780e10aa9b44fe350.jpg,venta
0,1841078,-70.5684,-33.4156,Las Condes,Casa remodelar Martin de Zamora,222.0,222.0,3,3,13500.0,13500.0,407306205.0,0.0,13500.0,07-10-2021 0:00:00,https://www.toctoc.com/propiedades/compracorredorasr/oficina/las-condes/casa-remodelar-martin-de-zamora/1841078,https://d1cfu8v5n1wsm.cloudfront.net/toctoc/fotos/20211007/1841078/s_wm_easyprop_151411030151411966662_1.jpg,venta
0,1282141,-70.561,-33.4118,Las Condes,IV Centenario / Metro Manquehue / Hernando de Magallanes,619.0,619.0,3,3,18750.0,18750.0,565703062.5,0.0,18750.0,02-08-2019 0:00:00,https://www.toctoc.com/propiedades/compracorredorasr/oficina/las-condes/iv-centenario-metro-manquehue-hernando-de-magallanes/1282141,https://d1cfu8v5n1wsm.cloudfront.net/toctoc/fotos/20190802/1282141/s_wm_vivax_propiedades_711214-103711214-181677_1.jpg,venta
0,1706932,-70.566,-33.4111,Las Condes,Av. Manquehue Sur 520,29.0,29.0,0,0,3000.0,3000.0,90512490.0,0.0,3000.0,01-04-2021 0:00:00,https://www.toctoc.com/propiedades/compracorredorasr/oficina/las-condes/av-manquehue-sur-520/1706932,https://d1cfu8v5n1wsm.cloudfront.net/toctoc/fotos/20210401/1706932/s_wm_remax1028076_l_0661546cc6e242bf98116946e06c5171.jpg,venta
0,1739185,-70.5658,-33.4113,Las Condes,Manquehue Sur,63.82,63.82,0,0,5810.0,5810.0,175292522.3,0.0,5810.0,19-05-2021 0:00:00,https://www.toctoc.com/propiedades/compracorredorasr/oficina/las-condes/manquehue-sur/1739185,https://d1cfu8v5n1wsm.cloudfront.net/toctoc/fotos/20210519/1739185/s_wm_sothebys_161954-103161954-196518_1.jpg,venta
0,1832355,-70.5658,-33.4113,Las Condes,BAJA DE PRECIO MANQUEHUE SUR / APUMANQUE / APOQUINDO / METRO,28.0,28.0,1,1,2990.0,2990.0,90210781.7,0.0,2990.0,24-09-2021 0:00:00,https://www.toctoc.com/propiedades/compracorredorasr/oficina/las-condes/baja-de-precio-manquehue-sur-apumanque-apoquindo-metro/1832355,https://d1cfu8v5n1wsm.cloudfront.net/toctoc/fotos/20210924/1832355/s_wm_gestionpropiedad_2275a.jpg,venta
0,1670360,-70.5731,-33.4008,Las Condes,CERRO COLORADO,33.0,33.0,1,1,3900.0,3900.0,117666237.0,0.0,3900.0,07-08-2021 0:00:00,https://www.toctoc.com/propiedades/compracorredorasr/oficina/las-condes/cerro-colorado/1670360,https://d1cfu8v5n1wsm.cloudfront.net/toctoc/fotos/20210211/1670360/s_wm_century21cumbres_60060fb91504f.jpg,venta
0,1747340,-70.5732,-33.4072,Las Condes,Badajoz,100.0,100.0,3,3,11990.0,11990.0,361748251.7,0.0,11990.0,29-05-2021 0:00:00,https://www.toctoc.com/propiedades/compracorredorasr/oficina/las-condes/badajoz/1747340,https://d1cfu8v5n1wsm.cloudfront.net/toctoc/fotos/20210529/1747340/s_wm_century21invernor_606df67be426f.jpg,venta
0,1805877,-70.5703,-33.4046,Las Condes,Cerro el Plomo / Manquehue,20.0,20.0,1,1,1900.0,1900.0,57324577.0,0.0,1900.0,24-08-2021 0:00:00,https://www.toctoc.com/propiedades/compracorredorasr/oficina/las-condes/cerro-el-plomo-manquehue/1805877,https://d1cfu8v5n1wsm.cloudfront.net/toctoc/fotos/20210824/1805877/s_wm_realtycorp_45855103045855339317_1.jpg,venta
0,1773887,-70.57,-33.4073,Las Condes,Alonso de Córdova/Manquehue,45.0,45.0,2,2,4500.0,4500.0,135768735.0,0.0,4500.0,09-07-2021 0:00:00,https://www.toctoc.com/propiedades/compracorredorasr/oficina/las-condes/alonso-de-cordova-manquehue/1773887,https://d1cfu8v5n1wsm.cloudfront.net/toctoc/fotos/20210704/1773887/s_wm_mimica_propiedades_132482103132482368142_1.jpg,venta
0,1464166,-70.5722,-33.4098,Las Condes,Badajoz,98.0,98.0,2,2,9180.0,9180.0,276968219.4,0.0,9180.0,05-11-2020 0:00:00,https://www.toctoc.com/propiedades/compracorredorasr/oficina/las-condes/badajoz/1464166,https://d1cfu8v5n1wsm.cloudfront.net/toctoc/fotos/20200422/1464166/s_wm_century21lasamericas_5e9cefab0fc65.jpg,venta
0,1596181,-70.5722,-33.4098,Las Condes,Badajoz con Apoquindo,120.0,120.0,2,2,298000000.0,298000000.0,9877.09,9877.09,9877.09,26-10-2020 0:00:00,https://www.toctoc.com/propiedades/compracorredorasr/oficina/las-condes/badajoz-con-apoquindo/1596181,https://d1cfu8v5n1wsm.cloudfront.net/toctoc/fotos/20201026/1596181/s_wm_vivax_propiedades_711962-103711962-195660_1.png,venta
0,1707073,-70.571,-33.4095,Las Condes,Rosario Norte,79.62,79.62,2,2,8100.0,8100.0,244383723.0,0.0,8100.0,01-04-2021 0:00:00,https://www.toctoc.com/propiedades/compracorredorasr/oficina/las-condes/rosario-norte/1707073,https://d1cfu8v5n1wsm.cloudfront.net/toctoc/fotos/20210401/1707073/s_wm_century21aprica_60563f98f0d72.jpg,venta
0,1695356,-70.5717,-33.4051,Las Condes,Los Militares / Alonso de Córdova,42.0,42.0,2,2,4300.0,4300.0,129734569.0,0.0,4300.0,17-03-2021 0:00:00,https://www.toctoc.com/propiedades/compracorredorasr/oficina/las-condes/los-militares-alonso-de-cordova/1695356,https://d1cfu8v5n1wsm.cloudfront.net/toctoc/fotos/20210317/1695356/s_wm_fap_375029-103375029-839402_1.jpg,venta
0,1621216,-70.5708,-33.4049,Las Condes,NUEVA LAS CONDES / PARQUE ARAUCANO,180.0,180.0,3,3,19800.0,19800.0,597382434.0,0.0,19800.0,27-11-2020 0:00:00,https://www.toctoc.com/propiedades/compracorredorasr/oficina/las-condes/nueva-las-condes-parque-araucano/1621216,https://d1cfu8v5n1wsm.cloudfront.net/toctoc/fotos/20201127/1621216/s_wm_mpp_76689-103076689-2261572_1.jpg,venta
0,1842178,-70.571,-33.4091,Las Condes,Rosario Norte,67.0,67.0,2,2,7000.0,7000.0,211195810.0,0.0,7000.0,08-10-2021 0:00:00,https://www.toctoc.com/propiedades/compracorredorasr/oficina/las-condes/rosario-norte/1842178,https://d1cfu8v5n1wsm.cloudfront.net/toctoc/fotos/20211008/1842178/s_wm_vrp_799751030799752335105_1.jpg,venta
0,1836834,-70.5706,-33.4033,Las Condes,Presidente Riesco con Manquehue,65.0,65.0,2,2,8100.0,8100.0,244383723.0,0.0,8100.0,30-09-2021 0:00:00,https://www.toctoc.com/propiedades/compracorredorasr/oficina/las-condes/presidente-riesco-con-manquehue/1836834,https://d1cfu8v5n1wsm.cloudfront.net/toctoc/fotos/20210930/1836834/s_wm_fph_378192103378192911256_1.jpg,venta
0,1772228,-70.5714,-33.4072,Las Condes,Alonso de Córdova con Rosario Norte,84.0,84.0,2,2,8500.0,8500.0,256452055.0,0.0,8500.0,08-07-2021 0:00:00,https://www.toctoc.com/propiedades/compracorredorasr/oficina/las-condes/alonso-de-cordova-con-rosario-norte/1772228,https://d1cfu8v5n1wsm.cloudfront.net/toctoc/fotos/20210708/1772228/s_wm_feg_376730103376730876850_1.jpg,venta
0,1661152,-70.57,-33.4073,Las Condes,Alonso de Córdova,22.63,22.63,1,1,2602.0,2602.0,78504499.66,0.0,2602.0,02-07-2021 0:00:00,https://www.toctoc.com/propiedades/compracorredorasr/oficina/las-condes/alonso-de-cordova/1661152,https://d1cfu8v5n1wsm.cloudfront.net/toctoc/fotos/20210128/1661152/s_wm_prourbe_528231030528232062175_1.jpg,venta
0,1828600,-70.5712,-33.4069,Las Condes,Nueva Las Condes,0.0,0.0,3,3,17000.0,17000.0,512904110.0,0.0,17000.0,21-09-2021 0:00:00,https://www.toctoc.com/propiedades/compracorredorasr/oficina/las-condes/nueva-las-condes/1828600,https://d1cfu8v5n1wsm.cloudfront.net/toctoc/fotos/20210921/1828600/s_wm_propertypartners_2426485_37935589_eb-ih6485.jpg,venta
0,1507034,-70.5791,-33.4059,Las Condes,Alonso de Cordova / Pdte Riesco,323.0,323.0,5,5,92.0,92.0,2775716.36,0.0,92.0,30-06-2020 0:00:00,https://www.toctoc.com/propiedades/compracorredorasr/oficina/las-condes/alonso-de-cordova-pdte-riesco/1507034,https://d1cfu8v5n1wsm.cloudfront.net/toctoc/fotos/20200630/1507034/s_wm_viv_74724-103074724-2222974_1.jpg,venta
0,1774642,-70.5767,-33.4065,Las Condes,Alonso de Cordova/Presidente Riesco,200.0,200.0,3,3,22090.0,22090.0,666473634.7,0.0,22090.0,11-07-2021 0:00:00,https://www.toctoc.com/propiedades/compracorredorasr/oficina/las-condes/alonso-de-cordova-presidente-riesco/1774642,https://d1cfu8v5n1wsm.cloudfront.net/toctoc/fotos/20210711/1774642/s_wm_fpv_376778103376778877990_1.jpg,venta
0,1779687,-70.5738,-33.4005,Las Condes,Hotel Marriot,517.0,517.0,15,15,99.5,99.5,3001997.58,0.0,99.5,20-07-2021 0:00:00,https://www.toctoc.com/propiedades/compracorredorasr/oficina/las-condes/hotel-marriot/1779687,https://d1cfu8v5n1wsm.cloudfront.net/toctoc/fotos/20210720/1779687/s_wm_vie_791231030791232315559_1.jpg,venta
0,1660777,-70.57,-33.4073,Las Condes,Alonso de Córdova,23.28,23.28,1,1,2677.0,2677.0,80767311.91,0.0,2677.0,02-07-2021 0:00:00,https://www.toctoc.com/propiedades/compracorredorasr/oficina/las-condes/alonso-de-cordova/1660777,https://d1cfu8v5n1wsm.cloudfront.net/toctoc/fotos/20210127/1660777/s_wm_prourbe_528161030528162049492_1.jpg,venta
0,1823867,-70.5705,-33.4054,Las Condes,Los Militares - Av. Manquehue,330.0,330.0,6,6,35000.0,35000.0,1055979050.0,0.0,35000.0,11-09-2021 0:00:00,https://www.toctoc.com/propiedades/compracorredorasr/oficina/las-condes/los-militares-av-manquehue/1823867,https://d1cfu8v5n1wsm.cloudfront.net/toctoc/fotos/20210911/1823867/s_wm_thekeyproperties_111881030111881854684_1.jpg,venta
0,1660728,-70.5729,-33.4063,Las Condes,Los Militares /Alonso de Cordova,23.0,23.0,1,1,2700.0,2700.0,81461241.0,0.0,2700.0,27-01-2021 0:00:00,https://www.toctoc.com/propiedades/compracorredorasr/oficina/las-condes/los-militares-alonso-de-cordova/1660728,https://d1cfu8v5n1wsm.cloudfront.net/toctoc/fotos/20210127/1660728/s_wm_flr_374132-103374132-819335_1.jpg,venta
0,1745698,-70.5716,-33.4096,Las Condes,Badajoz,98.0,98.0,2,2,10800.0,10800.0,325844964.0,0.0,10800.0,27-05-2021 0:00:00,https://www.toctoc.com/propiedades/compracorredorasr/oficina/las-condes/badajoz/1745698,https://d1cfu8v5n1wsm.cloudfront.net/toctoc/fotos/20210527/1745698/s_wm_fnc_376063-103376063-861462_1.jpg,venta
0,1832174,-70.5738,-33.4005,Las Condes,Hotel Marriot,110.0,110.0,2,2,11000.0,11000.0,331879130.0,0.0,11000.0,24-09-2021 0:00:00,https://www.toctoc.com/propiedades/compracorredorasr/oficina/las-condes/hotel-marriot/1832174,https://d1cfu8v5n1wsm.cloudfront.net/toctoc/fotos/20210924/1832174/s_wm_vie_798271030798272331877_1.jpg,venta
0,1820899,-70.5704,-33.4045,Las Condes,Cerro el Plomo / Manquehue Norte,20.0,20.0,1,1,1900.0,1900.0,57324577.0,0.0,1900.0,08-09-2021 0:00:00,https://www.toctoc.com/propiedades/compracorredorasr/oficina/las-condes/cerro-el-plomo-manquehue-norte/1820899,https://d1cfu8v5n1wsm.cloudfront.net/toctoc/fotos/20210908/1820899/s_wm_realtycorp_45883103045883339954_1.jpg,venta
0,1785750,-70.5767,-33.4065,Las Condes,ALONSO DE CORDOVA / MANQUEHUE,126.0,126.0,2,2,13400.0,13400.0,404289122.0,0.0,13400.0,28-07-2021 0:00:00,https://www.toctoc.com/propiedades/compracorredorasr/oficina/las-condes/alonso-de-cordova-manquehue/1785750,https://d1cfu8v5n1wsm.cloudfront.net/toctoc/fotos/20210728/1785750/s_wm_realtycorp_45706103045706335564_1.jpg,venta
0,1794041,-70.5742,-33.4063,Las Condes,Alonso de Córdova,190.0,190.0,4,4,24000.0,24000.0,724099920.0,0.0,24000.0,09-08-2021 0:00:00,https://www.toctoc.com/propiedades/compracorredorasr/oficina/las-condes/alonso-de-cordova/1794041,https://d1cfu8v5n1wsm.cloudfront.net/toctoc/fotos/20210809/1794041/s_wm_vld_793351030793352320691_1.jpg,venta
0,1800641,-70.5727,-33.4082,Las Condes,METRO MAQUEHUE/BADAJOZ,0.0,0.0,2,2,4990.0,4990.0,150552441.7,0.0,4990.0,18-08-2021 0:00:00,https://www.toctoc.com/propiedades/compracorredorasr/oficina/las-condes/metro-maquehue-badajoz/1800641,https://d1cfu8v5n1wsm.cloudfront.net/toctoc/fotos/20210818/1800641/s_wm_procasa_propiedades_88600900_1.jpg,venta
0,1570081,-70.5702,-33.4053,Las Condes,Los Militares,166.0,166.0,3,3,21000.0,21000.0,633587430.0,0.0,21000.0,04-09-2021 0:00:00,https://www.toctoc.com/propiedades/compracorredorasr/oficina/las-condes/los-militares/1570081,https://d1cfu8v5n1wsm.cloudfront.net/toctoc/fotos/20200924/1570081/s_wm_fap_112630103112630687986_1.jpg,venta
0,622848,-70.5887,-33.4497,Ñuñoa,COMERCIAL/Presidente Battle y Ordoñez,480.0,480.0,4,4,15000.0,15000.0,452562450.0,0.0,15000.0,29-05-2021 0:00:00,https://www.toctoc.com/propiedades/compracorredorasr/oficina/nunoa/comercial-presidente-battle-y-ordonez/622848,https://d1cfu8v5n1wsm.cloudfront.net/toctoc/fotos/20160906/622848/s_wm_procasa_propiedades_76105406_1.jpg,venta
0,1499643,-70.5573,-33.3926,Vitacura,Kennedy / G. de Alderete / Wisconsin,135.0,135.0,2,2,18700.0,18700.0,564194521.0,0.0,18700.0,18-06-2020 0:00:00,https://www.toctoc.com/propiedades/compracorredorasr/oficina/vitacura/kennedy-g-de-alderete-wisconsin/1499643,https://d1cfu8v5n1wsm.cloudfront.net/toctoc/fotos/20200618/1499643/s_wm_prourbe_51435-103051435-2023466_1.jpg,venta
0,1780123,-70.5592,-33.3974,Las Condes,PRESIDENTE RIESCO/AV KENNEDY--- CASA COMERCIAL,352.0,352.0,1,1,14800.0,14800.0,446528284.0,0.0,14800.0,21-07-2021 0:00:00,https://www.toctoc.com/propiedades/compracorredorasr/oficina/las-condes/presidente-riesco-av-kennedy-casa-comercial/1780123,https://d1cfu8v5n1wsm.cloudfront.net/toctoc/fotos/20210721/1780123/s_wm_procasa_propiedades_85514800_1.jpg,venta
0,1786726,-70.5576,-33.3929,Vitacura,Gerónimo de Alderete,0.0,0.0,1,1,3096.0,3096.0,93408889.68,0.0,3096.0,29-07-2021 0:00:00,https://www.toctoc.com/propiedades/compracorredorasr/oficina/vitacura/geronimo-de-alderete/1786726,https://d1cfu8v5n1wsm.cloudfront.net/toctoc/fotos/20210729/1786726/s_wm_propertypartners_2352378_36519297_eb-ia2378.jpg,venta
